{
"type": "FeatureCollection",
"name": "bus_stops",
"crs": { "type": "name", "properties": { "name": "urn:ogc:def:crs:OGC:1.3:CRS84" } },
"features": [
{ "type": "Feature", "properties": { "accessibility_layer": "bus_stops", "element_type": "node", "osmid": "9019312697", "name": "Qua 200m đối diện Điện Máy Xanh", "name:vi": "", "official_name": "", "amenity": "", "highway": "bus_stop", "railway": "", "station": "", "public_transport": "platform", "bus": "yes", "operator": "", "network": "", "ref": "", "addr:street": "", "addr:district": "" }, "geometry": { "type": "Point", "coordinates": [ 105.7834567, 20.6171525 ] } },
{ "type": "Feature", "properties": { "accessibility_layer": "bus_stops", "element_type": "node", "osmid": "9019312698", "name": "Trước 100m Điện Máy Xanh", "name:vi": "", "official_name": "", "amenity": "", "highway": "bus_stop", "railway": "", "station": "", "public_transport": "platform", "bus": "yes", "operator": "", "network": "", "ref": "", "addr:street": "", "addr:district": "" }, "geometry": { "type": "Point", "coordinates": [ 105.7830643, 20.6177455 ] } },
{ "type": "Feature", "properties": { "accessibility_layer": "bus_stops", "element_type": "node", "osmid": "9019312695", "name": "Nhà Văn Hóa Thôn Hội Xá", "name:vi": "", "official_name": "", "amenity": "", "highway": "bus_stop", "railway": "", "station": "", "public_transport": "platform", "bus": "yes", "operator": "", "network": "", "ref": "", "addr:street": "", "addr:district": "" }, "geometry": { "type": "Point", "coordinates": [ 105.7810997, 20.6191972 ] } },
{ "type": "Feature", "properties": { "accessibility_layer": "bus_stops", "element_type": "node", "osmid": "9019312696", "name": "Đối diện nhà văn hóa thôn Hội Xá", "name:vi": "", "official_name": "", "amenity": "", "highway": "bus_stop", "railway": "", "station": "", "public_transport": "platform", "bus": "yes", "operator": "", "network": "", "ref": "", "addr:street": "", "addr:district": "" }, "geometry": { "type": "Point", "coordinates": [ 105.7807519, 20.6194806 ] } },
{ "type": "Feature", "properties": { "accessibility_layer": "bus_stops", "element_type": "node", "osmid": "9019312691", "name": "Đối diện Đồn Công an Hương Sơn", "name:vi": "", "official_name": "", "amenity": "", "highway": "bus_stop", "railway": "", "station": "", "public_transport": "platform", "bus": "yes", "operator": "", "network": "", "ref": "", "addr:street": "", "addr:district": "" }, "geometry": { "type": "Point", "coordinates": [ 105.7775657, 20.6223455 ] } },
{ "type": "Feature", "properties": { "accessibility_layer": "bus_stops", "element_type": "node", "osmid": "9019312689", "name": "Đồn Công An Hương Sơn", "name:vi": "", "official_name": "", "amenity": "", "highway": "bus_stop", "railway": "", "station": "", "public_transport": "platform", "bus": "yes", "operator": "", "network": "", "ref": "", "addr:street": "", "addr:district": "" }, "geometry": { "type": "Point", "coordinates": [ 105.775862, 20.6238575 ] } },
{ "type": "Feature", "properties": { "accessibility_layer": "bus_stops", "element_type": "node", "osmid": "9019312687", "name": "Trước 100m trạm bơm Bạch Tuyết", "name:vi": "", "official_name": "", "amenity": "", "highway": "bus_stop", "railway": "", "station": "", "public_transport": "platform", "bus": "yes", "operator": "", "network": "", "ref": "", "addr:street": "", "addr:district": "" }, "geometry": { "type": "Point", "coordinates": [ 105.7762959, 20.62531 ] } },
{ "type": "Feature", "properties": { "accessibility_layer": "bus_stops", "element_type": "node", "osmid": "9019312688", "name": "Đối diện trạm bơm Bạch Tuyết", "name:vi": "", "official_name": "", "amenity": "", "highway": "bus_stop", "railway": "", "station": "", "public_transport": "platform", "bus": "yes", "operator": "", "network": "", "ref": "", "addr:street": "", "addr:district": "" }, "geometry": { "type": "Point", "coordinates": [ 105.7770691, 20.6256276 ] } },
{ "type": "Feature", "properties": { "accessibility_layer": "bus_stops", "element_type": "way", "osmid": "768420575", "name": "Bến xe Hương Sơn", "name:vi": "", "official_name": "", "amenity": "bus_station", "highway": "", "railway": "", "station": "", "public_transport": "station", "bus": "yes", "operator": "", "network": "", "ref": "", "addr:street": "", "addr:district": "" }, "geometry": { "type": "Polygon", "coordinates": [ [ [ 105.7873119, 20.6136445 ], [ 105.7876222, 20.6139888 ], [ 105.7884619, 20.6133692 ], [ 105.7884373, 20.6133126 ], [ 105.7883522, 20.6132064 ], [ 105.7879626, 20.612739 ], [ 105.7878604, 20.6125585 ], [ 105.7877848, 20.6124133 ], [ 105.7868396, 20.6131617 ], [ 105.7873119, 20.6136445 ] ] ] } },
{ "type": "Feature", "properties": { "accessibility_layer": "bus_stops", "element_type": "node", "osmid": "9019312701", "name": "Bến Xe Hương Sơn", "name:vi": "", "official_name": "", "amenity": "", "highway": "bus_stop", "railway": "", "station": "", "public_transport": "platform", "bus": "yes", "operator": "", "network": "", "ref": "", "addr:street": "", "addr:district": "" }, "geometry": { "type": "Point", "coordinates": [ 105.7876909, 20.6140216 ] } },
{ "type": "Feature", "properties": { "accessibility_layer": "bus_stops", "element_type": "node", "osmid": "9019312699", "name": "Nhà thờ Họ Vương", "name:vi": "", "official_name": "", "amenity": "", "highway": "bus_stop", "railway": "", "station": "", "public_transport": "platform", "bus": "yes", "operator": "", "network": "", "ref": "", "addr:street": "", "addr:district": "" }, "geometry": { "type": "Point", "coordinates": [ 105.7853227, 20.6153843 ] } },
{ "type": "Feature", "properties": { "accessibility_layer": "bus_stops", "element_type": "node", "osmid": "9019312700", "name": "Đền Trình", "name:vi": "", "official_name": "", "amenity": "", "highway": "bus_stop", "railway": "", "station": "", "public_transport": "platform", "bus": "yes", "operator": "", "network": "", "ref": "", "addr:street": "", "addr:district": "" }, "geometry": { "type": "Point", "coordinates": [ 105.7852933, 20.6155694 ] } },
{ "type": "Feature", "properties": { "accessibility_layer": "bus_stops", "element_type": "node", "osmid": "11166521256", "name": "Bến xe Hồng Quang", "name:vi": "", "official_name": "", "amenity": "", "highway": "bus_stop", "railway": "", "station": "", "public_transport": "platform", "bus": "yes", "operator": "", "network": "", "ref": "", "addr:street": "", "addr:district": "" }, "geometry": { "type": "Point", "coordinates": [ 105.7894658, 20.6177291 ] } },
{ "type": "Feature", "properties": { "accessibility_layer": "bus_stops", "element_type": "node", "osmid": "11166521255", "name": "Trước đối diện Bến xe Hồng Quang 30m", "name:vi": "", "official_name": "", "amenity": "", "highway": "bus_stop", "railway": "", "station": "", "public_transport": "platform", "bus": "yes", "operator": "", "network": "", "ref": "", "addr:street": "", "addr:district": "" }, "geometry": { "type": "Point", "coordinates": [ 105.7893583, 20.6177593 ] } },
{ "type": "Feature", "properties": { "accessibility_layer": "bus_stops", "element_type": "node", "osmid": "9019312683", "name": "Đối diện Trạm Y Tế Xã Đốc Tín", "name:vi": "", "official_name": "", "amenity": "", "highway": "bus_stop", "railway": "", "station": "", "public_transport": "platform", "bus": "yes", "operator": "", "network": "", "ref": "", "addr:street": "", "addr:district": "" }, "geometry": { "type": "Point", "coordinates": [ 105.7877933, 20.6288077 ] } },
{ "type": "Feature", "properties": { "accessibility_layer": "bus_stops", "element_type": "node", "osmid": "9019312684", "name": "Trạm y tế xã Đốc Tín", "name:vi": "", "official_name": "", "amenity": "", "highway": "bus_stop", "railway": "", "station": "", "public_transport": "platform", "bus": "yes", "operator": "", "network": "", "ref": "", "addr:street": "", "addr:district": "" }, "geometry": { "type": "Point", "coordinates": [ 105.7880965, 20.6297094 ] } },
{ "type": "Feature", "properties": { "accessibility_layer": "bus_stops", "element_type": "node", "osmid": "9019312680", "name": "Đối diện đường vào Xã Hùng Tiến", "name:vi": "", "official_name": "", "amenity": "", "highway": "bus_stop", "railway": "", "station": "", "public_transport": "platform", "bus": "yes", "operator": "", "network": "", "ref": "", "addr:street": "", "addr:district": "" }, "geometry": { "type": "Point", "coordinates": [ 105.78403, 20.6419844 ] } },
{ "type": "Feature", "properties": { "accessibility_layer": "bus_stops", "element_type": "node", "osmid": "11166521239", "name": "Đối diện cổng xóm 7 thôn Phù Lưu Hạ 20m", "name:vi": "", "official_name": "", "amenity": "", "highway": "bus_stop", "railway": "", "station": "", "public_transport": "platform", "bus": "yes", "operator": "", "network": "", "ref": "", "addr:street": "", "addr:district": "" }, "geometry": { "type": "Point", "coordinates": [ 105.7926785, 20.653899 ] } },
{ "type": "Feature", "properties": { "accessibility_layer": "bus_stops", "element_type": "node", "osmid": "11542412970", "name": "Đối diện cổng chủa Đại Bi", "name:vi": "", "official_name": "", "amenity": "", "highway": "bus_stop", "railway": "", "station": "", "public_transport": "platform", "bus": "yes", "operator": "", "network": "", "ref": "", "addr:street": "", "addr:district": "" }, "geometry": { "type": "Point", "coordinates": [ 105.7748053, 20.6589657 ] } },
{ "type": "Feature", "properties": { "accessibility_layer": "bus_stops", "element_type": "node", "osmid": "9019312675", "name": "Đối diện đường vào làng Trinh Tiết", "name:vi": "", "official_name": "", "amenity": "", "highway": "bus_stop", "railway": "", "station": "", "public_transport": "platform", "bus": "yes", "operator": "", "network": "", "ref": "", "addr:street": "", "addr:district": "" }, "geometry": { "type": "Point", "coordinates": [ 105.7678485, 20.6632376 ] } },
{ "type": "Feature", "properties": { "accessibility_layer": "bus_stops", "element_type": "node", "osmid": "9019312676", "name": "Trước 50m đường vào làng Trinh Tiết", "name:vi": "", "official_name": "", "amenity": "", "highway": "bus_stop", "railway": "", "station": "", "public_transport": "platform", "bus": "yes", "operator": "", "network": "", "ref": "", "addr:street": "", "addr:district": "" }, "geometry": { "type": "Point", "coordinates": [ 105.7678383, 20.6634501 ] } },
{ "type": "Feature", "properties": { "accessibility_layer": "bus_stops", "element_type": "node", "osmid": "9019312673", "name": "Đối diện cây xăng Đại Hưng", "name:vi": "", "official_name": "", "amenity": "", "highway": "bus_stop", "railway": "", "station": "", "public_transport": "platform", "bus": "yes", "operator": "", "network": "", "ref": "", "addr:street": "", "addr:district": "" }, "geometry": { "type": "Point", "coordinates": [ 105.7633756, 20.6657737 ] } },
{ "type": "Feature", "properties": { "accessibility_layer": "bus_stops", "element_type": "node", "osmid": "9019312674", "name": "Cây Xăng Đại Hưng", "name:vi": "", "official_name": "", "amenity": "", "highway": "bus_stop", "railway": "", "station": "", "public_transport": "platform", "bus": "yes", "operator": "", "network": "", "ref": "", "addr:street": "", "addr:district": "" }, "geometry": { "type": "Point", "coordinates": [ 105.7634037, 20.6660077 ] } },
{ "type": "Feature", "properties": { "accessibility_layer": "bus_stops", "element_type": "node", "osmid": "11166521230", "name": "Đối diện Trạm y tế xã Hòa Phú", "name:vi": "", "official_name": "", "amenity": "", "highway": "bus_stop", "railway": "", "station": "", "public_transport": "platform", "bus": "yes", "operator": "", "network": "", "ref": "", "addr:street": "", "addr:district": "" }, "geometry": { "type": "Point", "coordinates": [ 105.7734028, 20.6710175 ] } },
{ "type": "Feature", "properties": { "accessibility_layer": "bus_stops", "element_type": "node", "osmid": "11166521229", "name": "Cạnh cửa hàng cắt tóc Rơm vàng xã Hòa Phú", "name:vi": "", "official_name": "", "amenity": "", "highway": "bus_stop", "railway": "", "station": "", "public_transport": "platform", "bus": "yes", "operator": "", "network": "", "ref": "", "addr:street": "", "addr:district": "" }, "geometry": { "type": "Point", "coordinates": [ 105.7732539, 20.6712007 ] } },
{ "type": "Feature", "properties": { "accessibility_layer": "bus_stops", "element_type": "node", "osmid": "11166521228", "name": "Cửa hàng sửa chữa xe máy Honda thôn Dư Xá", "name:vi": "", "official_name": "", "amenity": "", "highway": "bus_stop", "railway": "", "station": "", "public_transport": "platform", "bus": "yes", "operator": "", "network": "", "ref": "", "addr:street": "", "addr:district": "" }, "geometry": { "type": "Point", "coordinates": [ 105.7683508, 20.6740415 ] } },
{ "type": "Feature", "properties": { "accessibility_layer": "bus_stops", "element_type": "node", "osmid": "11166521227", "name": "Đối diện cửa hàng đồ gỗ Đức Phương thôn Dư Xá", "name:vi": "", "official_name": "", "amenity": "", "highway": "bus_stop", "railway": "", "station": "", "public_transport": "platform", "bus": "yes", "operator": "", "network": "", "ref": "", "addr:street": "", "addr:district": "" }, "geometry": { "type": "Point", "coordinates": [ 105.7675193, 20.6743677 ] } },
{ "type": "Feature", "properties": { "accessibility_layer": "bus_stops", "element_type": "node", "osmid": "11166521226", "name": "Trước đối diện xóm Trường Thọ 20m", "name:vi": "", "official_name": "", "amenity": "", "highway": "bus_stop", "railway": "", "station": "", "public_transport": "platform", "bus": "yes", "operator": "", "network": "", "ref": "", "addr:street": "", "addr:district": "" }, "geometry": { "type": "Point", "coordinates": [ 105.7633001, 20.6767756 ] } },
{ "type": "Feature", "properties": { "accessibility_layer": "bus_stops", "element_type": "node", "osmid": "9019312686", "name": "Đối diện lối vào trường Trung học phổ thông Mỹ Đức C", "name:vi": "", "official_name": "", "amenity": "", "highway": "bus_stop", "railway": "", "station": "", "public_transport": "platform", "bus": "yes", "operator": "", "network": "", "ref": "", "addr:street": "", "addr:district": "" }, "geometry": { "type": "Point", "coordinates": [ 105.7828451, 20.6277439 ] } },
{ "type": "Feature", "properties": { "accessibility_layer": "bus_stops", "element_type": "node", "osmid": "9019312685", "name": "Lối vào trường Trung học phổ thông Mỹ Đức C", "name:vi": "", "official_name": "", "amenity": "", "highway": "bus_stop", "railway": "", "station": "", "public_transport": "platform", "bus": "yes", "operator": "", "network": "", "ref": "", "addr:street": "", "addr:district": "" }, "geometry": { "type": "Point", "coordinates": [ 105.782663, 20.6278688 ] } },
{ "type": "Feature", "properties": { "accessibility_layer": "bus_stops", "element_type": "node", "osmid": "9019312679", "name": "Đường vào xã Hùng Tiến", "name:vi": "", "official_name": "", "amenity": "", "highway": "bus_stop", "railway": "", "station": "", "public_transport": "platform", "bus": "yes", "operator": "", "network": "", "ref": "", "addr:street": "", "addr:district": "" }, "geometry": { "type": "Point", "coordinates": [ 105.7838154, 20.6419162 ] } },
{ "type": "Feature", "properties": { "accessibility_layer": "bus_stops", "element_type": "node", "osmid": "9019312677", "name": "Trước 200m cổng làng Kim Bôi", "name:vi": "", "official_name": "", "amenity": "", "highway": "bus_stop", "railway": "", "station": "", "public_transport": "platform", "bus": "yes", "operator": "", "network": "", "ref": "", "addr:street": "", "addr:district": "" }, "geometry": { "type": "Point", "coordinates": [ 105.7779062, 20.6543863 ] } },
{ "type": "Feature", "properties": { "accessibility_layer": "bus_stops", "element_type": "node", "osmid": "9019312678", "name": "Qua 200m cổng làng Kim Bôi", "name:vi": "", "official_name": "", "amenity": "", "highway": "bus_stop", "railway": "", "station": "", "public_transport": "platform", "bus": "yes", "operator": "", "network": "", "ref": "", "addr:street": "", "addr:district": "" }, "geometry": { "type": "Point", "coordinates": [ 105.7779623, 20.6546442 ] } },
{ "type": "Feature", "properties": { "accessibility_layer": "bus_stops", "element_type": "node", "osmid": "11542412971", "name": "Gần cổng Chùa Đại Bi", "name:vi": "", "official_name": "", "amenity": "", "highway": "bus_stop", "railway": "", "station": "", "public_transport": "platform", "bus": "yes", "operator": "", "network": "", "ref": "", "addr:street": "", "addr:district": "" }, "geometry": { "type": "Point", "coordinates": [ 105.7754875, 20.6587169 ] } },
{ "type": "Feature", "properties": { "accessibility_layer": "bus_stops", "element_type": "node", "osmid": "11166521233", "name": "Cạnh cửa hàng tiêu dùng Cường Thúy xóm Phú Quý", "name:vi": "", "official_name": "", "amenity": "", "highway": "bus_stop", "railway": "", "station": "", "public_transport": "platform", "bus": "yes", "operator": "", "network": "", "ref": "", "addr:street": "", "addr:district": "" }, "geometry": { "type": "Point", "coordinates": [ 105.7830279, 20.6655391 ] } },
{ "type": "Feature", "properties": { "accessibility_layer": "bus_stops", "element_type": "node", "osmid": "11166521231", "name": "Đối diện cửa hàng sửa xe máy Thúy Vỹ xóm Lương Sơn", "name:vi": "", "official_name": "", "amenity": "", "highway": "bus_stop", "railway": "", "station": "", "public_transport": "platform", "bus": "yes", "operator": "", "network": "", "ref": "", "addr:street": "", "addr:district": "" }, "geometry": { "type": "Point", "coordinates": [ 105.7782066, 20.6683524 ] } },
{ "type": "Feature", "properties": { "accessibility_layer": "bus_stops", "element_type": "node", "osmid": "11166521232", "name": "Trước cổng Ngõ Gạo xóm Lương Sơn", "name:vi": "", "official_name": "", "amenity": "", "highway": "bus_stop", "railway": "", "station": "", "public_transport": "platform", "bus": "yes", "operator": "", "network": "", "ref": "", "addr:street": "", "addr:district": "" }, "geometry": { "type": "Point", "coordinates": [ 105.7782763, 20.6684025 ] } },
{ "type": "Feature", "properties": { "accessibility_layer": "bus_stops", "element_type": "node", "osmid": "11539719379", "name": "Đối diện cửa hàng nhựa Tiền Phong Mai Nam - Hậu Xá", "name:vi": "", "official_name": "", "amenity": "", "highway": "bus_stop", "railway": "", "station": "", "public_transport": "platform", "bus": "yes", "operator": "", "network": "", "ref": "", "addr:street": "", "addr:district": "" }, "geometry": { "type": "Point", "coordinates": [ 105.7832968, 20.7279962 ] } },
{ "type": "Feature", "properties": { "accessibility_layer": "bus_stops", "element_type": "node", "osmid": "11166521225", "name": "Cạnh cổng xóm Trường Thọ thôn Dư Xá", "name:vi": "", "official_name": "", "amenity": "", "highway": "bus_stop", "railway": "", "station": "", "public_transport": "platform", "bus": "yes", "operator": "", "network": "", "ref": "", "addr:street": "", "addr:district": "" }, "geometry": { "type": "Point", "coordinates": [ 105.7629984, 20.6770712 ] } },
{ "type": "Feature", "properties": { "accessibility_layer": "bus_stops", "element_type": "node", "osmid": "9019312655", "name": "Cây xăng Thái Đường", "name:vi": "", "official_name": "", "amenity": "", "highway": "bus_stop", "railway": "", "station": "", "public_transport": "platform", "bus": "yes", "operator": "", "network": "", "ref": "", "addr:street": "", "addr:district": "" }, "geometry": { "type": "Point", "coordinates": [ 105.764053, 20.7062923 ] } },
{ "type": "Feature", "properties": { "accessibility_layer": "bus_stops", "element_type": "node", "osmid": "9019312654", "name": "Đối diện cây xăng Thái Đường", "name:vi": "", "official_name": "", "amenity": "", "highway": "bus_stop", "railway": "", "station": "", "public_transport": "platform", "bus": "yes", "operator": "", "network": "", "ref": "", "addr:street": "", "addr:district": "" }, "geometry": { "type": "Point", "coordinates": [ 105.7640864, 20.7068004 ] } },
{ "type": "Feature", "properties": { "accessibility_layer": "bus_stops", "element_type": "node", "osmid": "9019312652", "name": "Đối diện cây xăng Vạn Thái", "name:vi": "", "official_name": "", "amenity": "", "highway": "bus_stop", "railway": "", "station": "", "public_transport": "platform", "bus": "yes", "operator": "", "network": "", "ref": "", "addr:street": "", "addr:district": "" }, "geometry": { "type": "Point", "coordinates": [ 105.7672377, 20.7120204 ] } },
{ "type": "Feature", "properties": { "accessibility_layer": "bus_stops", "element_type": "node", "osmid": "9019312653", "name": "Cây xăng Vạn Thái", "name:vi": "", "official_name": "", "amenity": "", "highway": "bus_stop", "railway": "", "station": "", "public_transport": "platform", "bus": "yes", "operator": "", "network": "", "ref": "", "addr:street": "", "addr:district": "" }, "geometry": { "type": "Point", "coordinates": [ 105.7674036, 20.7120873 ] } },
{ "type": "Feature", "properties": { "accessibility_layer": "bus_stops", "element_type": "node", "osmid": "9019312651", "name": "Đối diện đình Thái Đường", "name:vi": "", "official_name": "", "amenity": "", "highway": "bus_stop", "railway": "", "station": "", "public_transport": "platform", "bus": "yes", "operator": "", "network": "", "ref": "", "addr:street": "", "addr:district": "" }, "geometry": { "type": "Point", "coordinates": [ 105.7678464, 20.714768 ] } },
{ "type": "Feature", "properties": { "accessibility_layer": "bus_stops", "element_type": "node", "osmid": "9019312650", "name": "Cột mốc Km28 - Quốc Lộ 21B", "name:vi": "", "official_name": "", "amenity": "", "highway": "bus_stop", "railway": "", "station": "", "public_transport": "platform", "bus": "yes", "operator": "", "network": "", "ref": "", "addr:street": "", "addr:district": "" }, "geometry": { "type": "Point", "coordinates": [ 105.7680706, 20.7161277 ] } },
{ "type": "Feature", "properties": { "accessibility_layer": "bus_stops", "element_type": "node", "osmid": "9019312649", "name": "Trước đường vào Bệnh viện Vân Đình 50m", "name:vi": "", "official_name": "", "amenity": "", "highway": "bus_stop", "railway": "", "station": "", "public_transport": "platform", "bus": "yes", "operator": "", "network": "", "ref": "", "addr:street": "", "addr:district": "" }, "geometry": { "type": "Point", "coordinates": [ 105.772627, 20.7237037 ] } },
{ "type": "Feature", "properties": { "accessibility_layer": "bus_stops", "element_type": "node", "osmid": "9019312648", "name": "Qua đối điện đường vào Bệnh viện Vân Đình 100m", "name:vi": "", "official_name": "", "amenity": "", "highway": "bus_stop", "railway": "", "station": "", "public_transport": "platform", "bus": "yes", "operator": "", "network": "", "ref": "", "addr:street": "", "addr:district": "" }, "geometry": { "type": "Point", "coordinates": [ 105.772536, 20.7242015 ] } },
{ "type": "Feature", "properties": { "accessibility_layer": "bus_stops", "element_type": "node", "osmid": "9019312647", "name": "Cầu Vân Đình", "name:vi": "", "official_name": "", "amenity": "", "highway": "bus_stop", "railway": "", "station": "", "public_transport": "platform", "bus": "yes", "operator": "", "network": "", "ref": "", "addr:street": "", "addr:district": "" }, "geometry": { "type": "Point", "coordinates": [ 105.7716618, 20.7272149 ] } },
{ "type": "Feature", "properties": { "accessibility_layer": "bus_stops", "element_type": "node", "osmid": "11166521238", "name": "Cửa hàng tạp hóa Thiện Lan xã Phù Lưu", "name:vi": "", "official_name": "", "amenity": "", "highway": "bus_stop", "railway": "", "station": "", "public_transport": "platform", "bus": "yes", "operator": "", "network": "", "ref": "", "addr:street": "", "addr:district": "" }, "geometry": { "type": "Point", "coordinates": [ 105.7896798, 20.6595209 ] } },
{ "type": "Feature", "properties": { "accessibility_layer": "bus_stops", "element_type": "node", "osmid": "11166521237", "name": "Đối diện cửa hàng nhựa Hải Linh xã Phù Lưu", "name:vi": "", "official_name": "", "amenity": "", "highway": "bus_stop", "railway": "", "station": "", "public_transport": "platform", "bus": "yes", "operator": "", "network": "", "ref": "", "addr:street": "", "addr:district": "" }, "geometry": { "type": "Point", "coordinates": [ 105.7893418, 20.6597066 ] } },
{ "type": "Feature", "properties": { "accessibility_layer": "bus_stops", "element_type": "node", "osmid": "11166521236", "name": "Qua đối diện lối vào chùa Đại Bi 50m", "name:vi": "", "official_name": "", "amenity": "", "highway": "bus_stop", "railway": "", "station": "", "public_transport": "platform", "bus": "yes", "operator": "", "network": "", "ref": "", "addr:street": "", "addr:district": "" }, "geometry": { "type": "Point", "coordinates": [ 105.7869117, 20.6626982 ] } },
{ "type": "Feature", "properties": { "accessibility_layer": "bus_stops", "element_type": "node", "osmid": "11166521235", "name": "Trước lối vào chùa Đại Bi 25m", "name:vi": "", "official_name": "", "amenity": "", "highway": "bus_stop", "railway": "", "station": "", "public_transport": "platform", "bus": "yes", "operator": "", "network": "", "ref": "", "addr:street": "", "addr:district": "" }, "geometry": { "type": "Point", "coordinates": [ 105.7866328, 20.6628136 ] } },
{ "type": "Feature", "properties": { "accessibility_layer": "bus_stops", "element_type": "node", "osmid": "11166521234", "name": "Đối diện cửa hàng cắt tóc Mai Hoa", "name:vi": "", "official_name": "", "amenity": "", "highway": "bus_stop", "railway": "", "station": "", "public_transport": "platform", "bus": "yes", "operator": "", "network": "", "ref": "", "addr:street": "", "addr:district": "" }, "geometry": { "type": "Point", "coordinates": [ 105.7842671, 20.6645955 ] } },
{ "type": "Feature", "properties": { "accessibility_layer": "bus_stops", "element_type": "node", "osmid": "11539719380", "name": "Đối diện Đình Dương Khê", "name:vi": "", "official_name": "", "amenity": "", "highway": "bus_stop", "railway": "", "station": "", "public_transport": "platform", "bus": "yes", "operator": "", "network": "", "ref": "", "addr:street": "", "addr:district": "" }, "geometry": { "type": "Point", "coordinates": [ 105.7909835, 20.7281855 ] } },
{ "type": "Feature", "properties": { "accessibility_layer": "bus_stops", "element_type": "node", "osmid": "11539719373", "name": "Đình Dương Khê", "name:vi": "", "official_name": "", "amenity": "", "highway": "bus_stop", "railway": "", "station": "", "public_transport": "platform", "bus": "yes", "operator": "", "network": "", "ref": "", "addr:street": "", "addr:district": "" }, "geometry": { "type": "Point", "coordinates": [ 105.7907454, 20.7282678 ] } },
{ "type": "Feature", "properties": { "accessibility_layer": "bus_stops", "element_type": "node", "osmid": "9007641838", "name": "Đối diện cửa hàng xăng dầu Quảng Phú", "name:vi": "", "official_name": "", "amenity": "", "highway": "bus_stop", "railway": "", "station": "", "public_transport": "platform", "bus": "yes", "operator": "", "network": "", "ref": "", "addr:street": "", "addr:district": "" }, "geometry": { "type": "Point", "coordinates": [ 105.7856532, 20.7769463 ] } },
{ "type": "Feature", "properties": { "accessibility_layer": "bus_stops", "element_type": "node", "osmid": "9007641840", "name": "Trước cầu Bầu 70m", "name:vi": "", "official_name": "", "amenity": "", "highway": "bus_stop", "railway": "", "station": "", "public_transport": "platform", "bus": "yes", "operator": "", "network": "", "ref": "", "addr:street": "", "addr:district": "" }, "geometry": { "type": "Point", "coordinates": [ 105.7907153, 20.7769603 ] } },
{ "type": "Feature", "properties": { "accessibility_layer": "bus_stops", "element_type": "node", "osmid": "9007641839", "name": "Gần cửa hàng xăng dầu Quảng Phú", "name:vi": "", "official_name": "", "amenity": "", "highway": "bus_stop", "railway": "", "station": "", "public_transport": "platform", "bus": "yes", "operator": "", "network": "", "ref": "", "addr:street": "", "addr:district": "" }, "geometry": { "type": "Point", "coordinates": [ 105.7858859, 20.7770813 ] } },
{ "type": "Feature", "properties": { "accessibility_layer": "bus_stops", "element_type": "node", "osmid": "9019312646", "name": "Cầu Vân Đình", "name:vi": "", "official_name": "", "amenity": "", "highway": "bus_stop", "railway": "", "station": "", "public_transport": "platform", "bus": "yes", "operator": "", "network": "", "ref": "", "addr:street": "", "addr:district": "" }, "geometry": { "type": "Point", "coordinates": [ 105.7718134, 20.7276772 ] } },
{ "type": "Feature", "properties": { "accessibility_layer": "bus_stops", "element_type": "node", "osmid": "11539719377", "name": "92 Trần Đăng Ninh - Thị trấn Vân Đình", "name:vi": "", "official_name": "", "amenity": "", "highway": "bus_stop", "railway": "", "station": "", "public_transport": "platform", "bus": "yes", "operator": "", "network": "", "ref": "", "addr:street": "", "addr:district": "" }, "geometry": { "type": "Point", "coordinates": [ 105.7730231, 20.730485 ] } },
{ "type": "Feature", "properties": { "accessibility_layer": "bus_stops", "element_type": "node", "osmid": "11539719376", "name": "69 Trần Đăng Ninh - Thị Trấn Vân Đình", "name:vi": "", "official_name": "", "amenity": "", "highway": "bus_stop", "railway": "", "station": "", "public_transport": "platform", "bus": "yes", "operator": "", "network": "", "ref": "", "addr:street": "", "addr:district": "" }, "geometry": { "type": "Point", "coordinates": [ 105.7736502, 20.7305865 ] } },
{ "type": "Feature", "properties": { "accessibility_layer": "bus_stops", "element_type": "node", "osmid": "9019312645", "name": "308 -310 Thị trấn Vân Đình", "name:vi": "", "official_name": "", "amenity": "", "highway": "bus_stop", "railway": "", "station": "", "public_transport": "platform", "bus": "yes", "operator": "", "network": "", "ref": "", "addr:street": "", "addr:district": "" }, "geometry": { "type": "Point", "coordinates": [ 105.7705999, 20.7333848 ] } },
{ "type": "Feature", "properties": { "accessibility_layer": "bus_stops", "element_type": "node", "osmid": "9019312644", "name": "UBND thị trấn Vân Đình", "name:vi": "", "official_name": "", "amenity": "", "highway": "bus_stop", "railway": "", "station": "", "public_transport": "platform", "bus": "yes", "operator": "", "network": "", "ref": "", "addr:street": "", "addr:district": "" }, "geometry": { "type": "Point", "coordinates": [ 105.7704775, 20.7337326 ] } },
{ "type": "Feature", "properties": { "accessibility_layer": "bus_stops", "element_type": "node", "osmid": "9005978402", "name": "Thị trấn Vân Đình", "name:vi": "", "official_name": "", "amenity": "", "highway": "bus_stop", "railway": "", "station": "", "public_transport": "platform", "bus": "yes", "operator": "", "network": "", "ref": "", "addr:street": "", "addr:district": "" }, "geometry": { "type": "Point", "coordinates": [ 105.7694608, 20.7347247 ] } },
{ "type": "Feature", "properties": { "accessibility_layer": "bus_stops", "element_type": "node", "osmid": "9005978405", "name": "Đối diện 190 Lê Lợi - Thị trấn Vân Đình", "name:vi": "", "official_name": "", "amenity": "", "highway": "bus_stop", "railway": "", "station": "", "public_transport": "platform", "bus": "yes", "operator": "", "network": "", "ref": "", "addr:street": "", "addr:district": "" }, "geometry": { "type": "Point", "coordinates": [ 105.7706139, 20.7361253 ] } },
{ "type": "Feature", "properties": { "accessibility_layer": "bus_stops", "element_type": "node", "osmid": "9005978404", "name": "202 Lê Lợi - Thị trấn Vân Đình", "name:vi": "", "official_name": "", "amenity": "", "highway": "bus_stop", "railway": "", "station": "", "public_transport": "platform", "bus": "yes", "operator": "", "network": "", "ref": "", "addr:street": "", "addr:district": "" }, "geometry": { "type": "Point", "coordinates": [ 105.7707669, 20.7362813 ] } },
{ "type": "Feature", "properties": { "accessibility_layer": "bus_stops", "element_type": "node", "osmid": "9005978407", "name": "Đối diện Cổng làng Lương Xá", "name:vi": "", "official_name": "", "amenity": "", "highway": "bus_stop", "railway": "", "station": "", "public_transport": "platform", "bus": "yes", "operator": "", "network": "", "ref": "", "addr:street": "", "addr:district": "" }, "geometry": { "type": "Point", "coordinates": [ 105.7702028, 20.7399236 ] } },
{ "type": "Feature", "properties": { "accessibility_layer": "bus_stops", "element_type": "node", "osmid": "9005978406", "name": "Gần cổng làng Lương Xá", "name:vi": "", "official_name": "", "amenity": "", "highway": "bus_stop", "railway": "", "station": "", "public_transport": "platform", "bus": "yes", "operator": "", "network": "", "ref": "", "addr:street": "", "addr:district": "" }, "geometry": { "type": "Point", "coordinates": [ 105.7702208, 20.7406593 ] } },
{ "type": "Feature", "properties": { "accessibility_layer": "bus_stops", "element_type": "node", "osmid": "9005978408", "name": "Trường Trung học cơ sở Liên Bạt", "name:vi": "", "official_name": "", "amenity": "", "highway": "bus_stop", "railway": "", "station": "", "public_transport": "platform", "bus": "yes", "operator": "", "network": "", "ref": "", "addr:street": "", "addr:district": "" }, "geometry": { "type": "Point", "coordinates": [ 105.7686925, 20.7456443 ] } },
{ "type": "Feature", "properties": { "accessibility_layer": "bus_stops", "element_type": "node", "osmid": "9005978409", "name": "Đối diện trường Trung học cơ sở Liên Bạt", "name:vi": "", "official_name": "", "amenity": "", "highway": "bus_stop", "railway": "", "station": "", "public_transport": "platform", "bus": "yes", "operator": "", "network": "", "ref": "", "addr:street": "", "addr:district": "" }, "geometry": { "type": "Point", "coordinates": [ 105.7684437, 20.7459849 ] } },
{ "type": "Feature", "properties": { "accessibility_layer": "bus_stops", "element_type": "node", "osmid": "9005978410", "name": "Đường vào UBND xã Liên Bạt", "name:vi": "", "official_name": "", "amenity": "", "highway": "bus_stop", "railway": "", "station": "", "public_transport": "platform", "bus": "yes", "operator": "", "network": "", "ref": "", "addr:street": "", "addr:district": "" }, "geometry": { "type": "Point", "coordinates": [ 105.767784, 20.7494687 ] } },
{ "type": "Feature", "properties": { "accessibility_layer": "bus_stops", "element_type": "node", "osmid": "9005978411", "name": "Đối diện UBND xã Liên Bạt", "name:vi": "", "official_name": "", "amenity": "", "highway": "bus_stop", "railway": "", "station": "", "public_transport": "platform", "bus": "yes", "operator": "", "network": "", "ref": "", "addr:street": "", "addr:district": "" }, "geometry": { "type": "Point", "coordinates": [ 105.767553, 20.7498231 ] } },
{ "type": "Feature", "properties": { "accessibility_layer": "bus_stops", "element_type": "node", "osmid": "9005978412", "name": "Cổng Làng Xóm Chùa", "name:vi": "", "official_name": "", "amenity": "", "highway": "bus_stop", "railway": "", "station": "", "public_transport": "platform", "bus": "yes", "operator": "", "network": "", "ref": "", "addr:street": "", "addr:district": "" }, "geometry": { "type": "Point", "coordinates": [ 105.7666303, 20.7574171 ] } },
{ "type": "Feature", "properties": { "accessibility_layer": "bus_stops", "element_type": "node", "osmid": "9005978413", "name": "Đối diện cổng làng xóm Chùa", "name:vi": "", "official_name": "", "amenity": "", "highway": "bus_stop", "railway": "", "station": "", "public_transport": "platform", "bus": "yes", "operator": "", "network": "", "ref": "", "addr:street": "", "addr:district": "" }, "geometry": { "type": "Point", "coordinates": [ 105.7665112, 20.7579469 ] } },
{ "type": "Feature", "properties": { "accessibility_layer": "bus_stops", "element_type": "node", "osmid": "9005978414", "name": "Đình Làng Bặt Ngõ", "name:vi": "", "official_name": "", "amenity": "", "highway": "bus_stop", "railway": "", "station": "", "public_transport": "platform", "bus": "yes", "operator": "", "network": "", "ref": "", "addr:street": "", "addr:district": "" }, "geometry": { "type": "Point", "coordinates": [ 105.7668241, 20.7608047 ] } },
{ "type": "Feature", "properties": { "accessibility_layer": "bus_stops", "element_type": "node", "osmid": "9005978415", "name": "Đối diện Đình chùa làng Bặt Ngõ", "name:vi": "", "official_name": "", "amenity": "", "highway": "bus_stop", "railway": "", "station": "", "public_transport": "platform", "bus": "yes", "operator": "", "network": "", "ref": "", "addr:street": "", "addr:district": "" }, "geometry": { "type": "Point", "coordinates": [ 105.766723, 20.7610949 ] } },
{ "type": "Feature", "properties": { "accessibility_layer": "bus_stops", "element_type": "node", "osmid": "9005978416", "name": "Gần Cầu Lão", "name:vi": "", "official_name": "", "amenity": "", "highway": "bus_stop", "railway": "", "station": "", "public_transport": "platform", "bus": "yes", "operator": "", "network": "", "ref": "", "addr:street": "", "addr:district": "" }, "geometry": { "type": "Point", "coordinates": [ 105.7683656, 20.7660129 ] } },
{ "type": "Feature", "properties": { "accessibility_layer": "bus_stops", "element_type": "node", "osmid": "9323131736", "name": "UBND Xã Trường Thịnh", "name:vi": "", "official_name": "", "amenity": "", "highway": "bus_stop", "railway": "", "station": "", "public_transport": "platform", "bus": "yes", "operator": "", "network": "", "ref": "", "addr:street": "", "addr:district": "" }, "geometry": { "type": "Point", "coordinates": [ 105.766544, 20.7662328 ] } },
{ "type": "Feature", "properties": { "accessibility_layer": "bus_stops", "element_type": "node", "osmid": "11539719374", "name": "Đối diện cửa hàng quần áo Ngọc Hường - Hậu Xá", "name:vi": "", "official_name": "", "amenity": "", "highway": "bus_stop", "railway": "", "station": "", "public_transport": "platform", "bus": "yes", "operator": "", "network": "", "ref": "", "addr:street": "", "addr:district": "" }, "geometry": { "type": "Point", "coordinates": [ 105.7831875, 20.7280771 ] } },
{ "type": "Feature", "properties": { "accessibility_layer": "bus_stops", "element_type": "node", "osmid": "11539719378", "name": "Qua 70m cầu Hậu Xá", "name:vi": "", "official_name": "", "amenity": "", "highway": "bus_stop", "railway": "", "station": "", "public_transport": "platform", "bus": "yes", "operator": "", "network": "", "ref": "", "addr:street": "", "addr:district": "" }, "geometry": { "type": "Point", "coordinates": [ 105.7793607, 20.7290052 ] } },
{ "type": "Feature", "properties": { "accessibility_layer": "bus_stops", "element_type": "node", "osmid": "11539719375", "name": "Trước 50m cầu Hậu Xá", "name:vi": "", "official_name": "", "amenity": "", "highway": "bus_stop", "railway": "", "station": "", "public_transport": "platform", "bus": "yes", "operator": "", "network": "", "ref": "", "addr:street": "", "addr:district": "" }, "geometry": { "type": "Point", "coordinates": [ 105.7784512, 20.7294638 ] } },
{ "type": "Feature", "properties": { "accessibility_layer": "bus_stops", "element_type": "node", "osmid": "9007641835", "name": "Đình Quảng Nguyên", "name:vi": "", "official_name": "", "amenity": "", "highway": "bus_stop", "railway": "", "station": "", "public_transport": "platform", "bus": "yes", "operator": "", "network": "", "ref": "", "addr:street": "", "addr:district": "" }, "geometry": { "type": "Point", "coordinates": [ 105.7764561, 20.7741194 ] } },
{ "type": "Feature", "properties": { "accessibility_layer": "bus_stops", "element_type": "node", "osmid": "9007641834", "name": "Đình Quảng Nguyên", "name:vi": "", "official_name": "", "amenity": "", "highway": "bus_stop", "railway": "", "station": "", "public_transport": "platform", "bus": "yes", "operator": "", "network": "", "ref": "", "addr:street": "", "addr:district": "" }, "geometry": { "type": "Point", "coordinates": [ 105.7771731, 20.7743867 ] } },
{ "type": "Feature", "properties": { "accessibility_layer": "bus_stops", "element_type": "node", "osmid": "9007641837", "name": "Đối diện cửa hàng điện thoại Trung Thành", "name:vi": "", "official_name": "", "amenity": "", "highway": "bus_stop", "railway": "", "station": "", "public_transport": "platform", "bus": "yes", "operator": "", "network": "", "ref": "", "addr:street": "", "addr:district": "" }, "geometry": { "type": "Point", "coordinates": [ 105.7808404, 20.7759972 ] } },
{ "type": "Feature", "properties": { "accessibility_layer": "bus_stops", "element_type": "node", "osmid": "9007641836", "name": "Cửa hàng điện thoại Trung Thành", "name:vi": "", "official_name": "", "amenity": "", "highway": "bus_stop", "railway": "", "station": "", "public_transport": "platform", "bus": "yes", "operator": "", "network": "", "ref": "", "addr:street": "", "addr:district": "" }, "geometry": { "type": "Point", "coordinates": [ 105.7815486, 20.7761616 ] } },
{ "type": "Feature", "properties": { "accessibility_layer": "bus_stops", "element_type": "node", "osmid": "9006046620", "name": "Thôn Xà Cầu (Trước cầu Xà Kiều 300m)", "name:vi": "", "official_name": "", "amenity": "", "highway": "bus_stop", "railway": "", "station": "", "public_transport": "platform", "bus": "yes", "operator": "", "network": "", "ref": "", "addr:street": "", "addr:district": "" }, "geometry": { "type": "Point", "coordinates": [ 105.7795289, 20.7863256 ] } },
{ "type": "Feature", "properties": { "accessibility_layer": "bus_stops", "element_type": "node", "osmid": "9006046621", "name": "Qua 300m cầu Xà Kiều", "name:vi": "", "official_name": "", "amenity": "", "highway": "bus_stop", "railway": "", "station": "", "public_transport": "platform", "bus": "yes", "operator": "", "network": "", "ref": "", "addr:street": "", "addr:district": "" }, "geometry": { "type": "Point", "coordinates": [ 105.779804, 20.7869292 ] } },
{ "type": "Feature", "properties": { "accessibility_layer": "bus_stops", "element_type": "node", "osmid": "9006046622", "name": "Đối diện cổng làng Tảo Dương", "name:vi": "", "official_name": "", "amenity": "", "highway": "bus_stop", "railway": "", "station": "", "public_transport": "platform", "bus": "yes", "operator": "", "network": "", "ref": "", "addr:street": "", "addr:district": "" }, "geometry": { "type": "Point", "coordinates": [ 105.7798817, 20.7939729 ] } },
{ "type": "Feature", "properties": { "accessibility_layer": "bus_stops", "element_type": "node", "osmid": "9323131738", "name": "Đối diện UBND xã Trường Thịnh", "name:vi": "", "official_name": "", "amenity": "", "highway": "bus_stop", "railway": "", "station": "", "public_transport": "platform", "bus": "yes", "operator": "", "network": "", "ref": "", "addr:street": "", "addr:district": "" }, "geometry": { "type": "Point", "coordinates": [ 105.7664711, 20.766416 ] } },
{ "type": "Feature", "properties": { "accessibility_layer": "bus_stops", "element_type": "node", "osmid": "9006046617", "name": "Gần Cầu Lão", "name:vi": "", "official_name": "", "amenity": "", "highway": "bus_stop", "railway": "", "station": "", "public_transport": "platform", "bus": "yes", "operator": "", "network": "", "ref": "", "addr:street": "", "addr:district": "" }, "geometry": { "type": "Point", "coordinates": [ 105.768487, 20.7668676 ] } },
{ "type": "Feature", "properties": { "accessibility_layer": "bus_stops", "element_type": "node", "osmid": "9323131734", "name": "Giếng làng thôn Thanh Sam", "name:vi": "", "official_name": "", "amenity": "", "highway": "bus_stop", "railway": "", "station": "", "public_transport": "platform", "bus": "yes", "operator": "", "network": "", "ref": "", "addr:street": "", "addr:district": "" }, "geometry": { "type": "Point", "coordinates": [ 105.7643435, 20.7697731 ] } },
{ "type": "Feature", "properties": { "accessibility_layer": "bus_stops", "element_type": "node", "osmid": "9323131735", "name": "Đối diện Giếng làng thôn Thanh Sam", "name:vi": "", "official_name": "", "amenity": "", "highway": "bus_stop", "railway": "", "station": "", "public_transport": "platform", "bus": "yes", "operator": "", "network": "", "ref": "", "addr:street": "", "addr:district": "" }, "geometry": { "type": "Point", "coordinates": [ 105.7645366, 20.7697851 ] } },
{ "type": "Feature", "properties": { "accessibility_layer": "bus_stops", "element_type": "node", "osmid": "9007641832", "name": "Đối diện Trường Trung học cơ sở Quảng Phú Cầu", "name:vi": "", "official_name": "", "amenity": "", "highway": "bus_stop", "railway": "", "station": "", "public_transport": "platform", "bus": "yes", "operator": "", "network": "", "ref": "", "addr:street": "", "addr:district": "" }, "geometry": { "type": "Point", "coordinates": [ 105.7723621, 20.7730823 ] } },
{ "type": "Feature", "properties": { "accessibility_layer": "bus_stops", "element_type": "node", "osmid": "9007641833", "name": "Trường Trung học cơ sở Quảng Phú Cầu", "name:vi": "", "official_name": "", "amenity": "", "highway": "bus_stop", "railway": "", "station": "", "public_transport": "platform", "bus": "yes", "operator": "", "network": "", "ref": "", "addr:street": "", "addr:district": "" }, "geometry": { "type": "Point", "coordinates": [ 105.7716411, 20.7731626 ] } },
{ "type": "Feature", "properties": { "accessibility_layer": "bus_stops", "element_type": "node", "osmid": "9006046618", "name": "Ngã 3 Quán Tròn", "name:vi": "", "official_name": "", "amenity": "", "highway": "bus_stop", "railway": "", "station": "", "public_transport": "platform", "bus": "yes", "operator": "", "network": "", "ref": "", "addr:street": "", "addr:district": "" }, "geometry": { "type": "Point", "coordinates": [ 105.7704881, 20.7736648 ] } },
{ "type": "Feature", "properties": { "accessibility_layer": "bus_stops", "element_type": "node", "osmid": "9006046619", "name": "Nghĩa trang liệt sỹ xã Quảng Phú Cầu", "name:vi": "", "official_name": "", "amenity": "", "highway": "bus_stop", "railway": "", "station": "", "public_transport": "platform", "bus": "yes", "operator": "", "network": "", "ref": "", "addr:street": "", "addr:district": "" }, "geometry": { "type": "Point", "coordinates": [ 105.7705756, 20.7743646 ] } },
{ "type": "Feature", "properties": { "accessibility_layer": "bus_stops", "element_type": "node", "osmid": "11543484322", "name": "Giữa số nhà 39-41 Cao Xá, Cao Dương", "name:vi": "", "official_name": "", "amenity": "", "highway": "bus_stop", "railway": "", "station": "", "public_transport": "platform", "bus": "yes", "operator": "", "network": "", "ref": "", "addr:street": "", "addr:district": "" }, "geometry": { "type": "Point", "coordinates": [ 105.7668789, 20.8113979 ] } },
{ "type": "Feature", "properties": { "accessibility_layer": "bus_stops", "element_type": "node", "osmid": "9006046630", "name": "50-52 Cao Xá", "name:vi": "", "official_name": "", "amenity": "", "highway": "bus_stop", "railway": "", "station": "", "public_transport": "platform", "bus": "yes", "operator": "", "network": "", "ref": "", "addr:street": "", "addr:district": "" }, "geometry": { "type": "Point", "coordinates": [ 105.7672271, 20.8115164 ] } },
{ "type": "Feature", "properties": { "accessibility_layer": "bus_stops", "element_type": "node", "osmid": "11166521253", "name": "Đối diện đường vào đền Đức Thánh Cả", "name:vi": "", "official_name": "", "amenity": "", "highway": "bus_stop", "railway": "", "station": "", "public_transport": "platform", "bus": "yes", "operator": "", "network": "", "ref": "", "addr:street": "", "addr:district": "" }, "geometry": { "type": "Point", "coordinates": [ 105.7969461, 20.6249765 ] } },
{ "type": "Feature", "properties": { "accessibility_layer": "bus_stops", "element_type": "node", "osmid": "11166521254", "name": "Qua đường vào đền Đức Thánh Cả 80m", "name:vi": "", "official_name": "", "amenity": "", "highway": "bus_stop", "railway": "", "station": "", "public_transport": "platform", "bus": "yes", "operator": "", "network": "", "ref": "", "addr:street": "", "addr:district": "" }, "geometry": { "type": "Point", "coordinates": [ 105.7977454, 20.625574 ] } },
{ "type": "Feature", "properties": { "accessibility_layer": "bus_stops", "element_type": "node", "osmid": "11166521252", "name": "Trước cửa hàng thịt gà Thanh Thảo 30m", "name:vi": "", "official_name": "", "amenity": "", "highway": "bus_stop", "railway": "", "station": "", "public_transport": "platform", "bus": "yes", "operator": "", "network": "", "ref": "", "addr:street": "", "addr:district": "" }, "geometry": { "type": "Point", "coordinates": [ 105.8023949, 20.6299962 ] } },
{ "type": "Feature", "properties": { "accessibility_layer": "bus_stops", "element_type": "node", "osmid": "11166521251", "name": "Đối diện cửa hàng thịt gà Thanh Thảo", "name:vi": "", "official_name": "", "amenity": "", "highway": "bus_stop", "railway": "", "station": "", "public_transport": "platform", "bus": "yes", "operator": "", "network": "", "ref": "", "addr:street": "", "addr:district": "" }, "geometry": { "type": "Point", "coordinates": [ 105.8025214, 20.6302631 ] } },
{ "type": "Feature", "properties": { "accessibility_layer": "bus_stops", "element_type": "node", "osmid": "11166521246", "name": "Qua đối diện đường vào trường Trung học phổ thông Lưu Hoàng 50m", "name:vi": "", "official_name": "", "amenity": "", "highway": "bus_stop", "railway": "", "station": "", "public_transport": "platform", "bus": "yes", "operator": "", "network": "", "ref": "", "addr:street": "", "addr:district": "" }, "geometry": { "type": "Point", "coordinates": [ 105.8030533, 20.6463192 ] } },
{ "type": "Feature", "properties": { "accessibility_layer": "bus_stops", "element_type": "node", "osmid": "11166521245", "name": "Trước lối rẽ đường vào trường Trung học phổ thông Lưu Hoàng 30m", "name:vi": "", "official_name": "", "amenity": "", "highway": "bus_stop", "railway": "", "station": "", "public_transport": "platform", "bus": "yes", "operator": "", "network": "", "ref": "", "addr:street": "", "addr:district": "" }, "geometry": { "type": "Point", "coordinates": [ 105.8029675, 20.6464849 ] } },
{ "type": "Feature", "properties": { "accessibility_layer": "bus_stops", "element_type": "node", "osmid": "11166521244", "name": "Trước đại lý sơn Tuấn Thành 20m", "name:vi": "", "official_name": "", "amenity": "", "highway": "bus_stop", "railway": "", "station": "", "public_transport": "platform", "bus": "yes", "operator": "", "network": "", "ref": "", "addr:street": "", "addr:district": "" }, "geometry": { "type": "Point", "coordinates": [ 105.8005107, 20.6485731 ] } },
{ "type": "Feature", "properties": { "accessibility_layer": "bus_stops", "element_type": "node", "osmid": "11166521243", "name": "Đối diện đại lý sơn Tuấn Thành", "name:vi": "", "official_name": "", "amenity": "", "highway": "bus_stop", "railway": "", "station": "", "public_transport": "platform", "bus": "yes", "operator": "", "network": "", "ref": "", "addr:street": "", "addr:district": "" }, "geometry": { "type": "Point", "coordinates": [ 105.8003659, 20.6485982 ] } },
{ "type": "Feature", "properties": { "accessibility_layer": "bus_stops", "element_type": "node", "osmid": "11166521242", "name": "Đối diện cửa hàng bún riêu cua Sơn Vui thôn Phù Lưu Hạ", "name:vi": "", "official_name": "", "amenity": "", "highway": "bus_stop", "railway": "", "station": "", "public_transport": "platform", "bus": "yes", "operator": "", "network": "", "ref": "", "addr:street": "", "addr:district": "" }, "geometry": { "type": "Point", "coordinates": [ 105.7949262, 20.650315 ] } },
{ "type": "Feature", "properties": { "accessibility_layer": "bus_stops", "element_type": "node", "osmid": "11166521241", "name": "Qua cửa hàng bún riêu cua Sơn Vui 30m thôn Phù Lưu Hạ", "name:vi": "", "official_name": "", "amenity": "", "highway": "bus_stop", "railway": "", "station": "", "public_transport": "platform", "bus": "yes", "operator": "", "network": "", "ref": "", "addr:street": "", "addr:district": "" }, "geometry": { "type": "Point", "coordinates": [ 105.7946472, 20.6506362 ] } },
{ "type": "Feature", "properties": { "accessibility_layer": "bus_stops", "element_type": "node", "osmid": "11166521249", "name": "Qua cổng xóm Thanh Lâm 5m", "name:vi": "", "official_name": "", "amenity": "", "highway": "bus_stop", "railway": "", "station": "", "public_transport": "platform", "bus": "yes", "operator": "", "network": "", "ref": "", "addr:street": "", "addr:district": "" }, "geometry": { "type": "Point", "coordinates": [ 105.8054784, 20.6330488 ] } },
{ "type": "Feature", "properties": { "accessibility_layer": "bus_stops", "element_type": "node", "osmid": "11166521250", "name": "Qua cổng xóm Thanh Lâm 15m", "name:vi": "", "official_name": "", "amenity": "", "highway": "bus_stop", "railway": "", "station": "", "public_transport": "platform", "bus": "yes", "operator": "", "network": "", "ref": "", "addr:street": "", "addr:district": "" }, "geometry": { "type": "Point", "coordinates": [ 105.8058271, 20.6332396 ] } },
{ "type": "Feature", "properties": { "accessibility_layer": "bus_stops", "element_type": "node", "osmid": "11166521248", "name": "Đối diện hàng cắt tóc Thảo Nguyên", "name:vi": "", "official_name": "", "amenity": "", "highway": "bus_stop", "railway": "", "station": "", "public_transport": "platform", "bus": "yes", "operator": "", "network": "", "ref": "", "addr:street": "", "addr:district": "" }, "geometry": { "type": "Point", "coordinates": [ 105.8076617, 20.6426452 ] } },
{ "type": "Feature", "properties": { "accessibility_layer": "bus_stops", "element_type": "node", "osmid": "11166521247", "name": "Đối diện cột mốc Km40 Bala", "name:vi": "", "official_name": "", "amenity": "", "highway": "bus_stop", "railway": "", "station": "", "public_transport": "platform", "bus": "yes", "operator": "", "network": "", "ref": "", "addr:street": "", "addr:district": "" }, "geometry": { "type": "Point", "coordinates": [ 105.8076725, 20.6430669 ] } },
{ "type": "Feature", "properties": { "accessibility_layer": "bus_stops", "element_type": "node", "osmid": "11539719382", "name": "Qua cửa hàng rửa xe Tân Tiến 100m - Động Phí", "name:vi": "", "official_name": "", "amenity": "", "highway": "bus_stop", "railway": "", "station": "", "public_transport": "platform", "bus": "yes", "operator": "", "network": "", "ref": "", "addr:street": "", "addr:district": "" }, "geometry": { "type": "Point", "coordinates": [ 105.803934, 20.7296507 ] } },
{ "type": "Feature", "properties": { "accessibility_layer": "bus_stops", "element_type": "node", "osmid": "9007641867", "name": "Điểm Đỗ Xe Bus Phú Túc", "name:vi": "", "official_name": "", "amenity": "", "highway": "bus_stop", "railway": "", "station": "", "public_transport": "platform", "bus": "yes", "operator": "", "network": "", "ref": "", "addr:street": "", "addr:district": "" }, "geometry": { "type": "Point", "coordinates": [ 105.8125345, 20.7591438 ] } },
{ "type": "Feature", "properties": { "accessibility_layer": "bus_stops", "element_type": "node", "osmid": "9007641865", "name": "Đối diện cổng thôn Lưu Thượng", "name:vi": "", "official_name": "", "amenity": "", "highway": "bus_stop", "railway": "", "station": "", "public_transport": "platform", "bus": "yes", "operator": "", "network": "", "ref": "", "addr:street": "", "addr:district": "" }, "geometry": { "type": "Point", "coordinates": [ 105.8104195, 20.7656083 ] } },
{ "type": "Feature", "properties": { "accessibility_layer": "bus_stops", "element_type": "node", "osmid": "9007641866", "name": "Thôn Lưu Thượng", "name:vi": "", "official_name": "", "amenity": "", "highway": "bus_stop", "railway": "", "station": "", "public_transport": "platform", "bus": "yes", "operator": "", "network": "", "ref": "", "addr:street": "", "addr:district": "" }, "geometry": { "type": "Point", "coordinates": [ 105.8104374, 20.7660282 ] } },
{ "type": "Feature", "properties": { "accessibility_layer": "bus_stops", "element_type": "node", "osmid": "9007641864", "name": "Đối diện cổng làng Phú Túc", "name:vi": "", "official_name": "", "amenity": "", "highway": "bus_stop", "railway": "", "station": "", "public_transport": "platform", "bus": "yes", "operator": "", "network": "", "ref": "", "addr:street": "", "addr:district": "" }, "geometry": { "type": "Point", "coordinates": [ 105.8093692, 20.7695882 ] } },
{ "type": "Feature", "properties": { "accessibility_layer": "bus_stops", "element_type": "node", "osmid": "9007641863", "name": "Cổng Làng Phú Túc", "name:vi": "", "official_name": "", "amenity": "", "highway": "bus_stop", "railway": "", "station": "", "public_transport": "platform", "bus": "yes", "operator": "", "network": "", "ref": "", "addr:street": "", "addr:district": "" }, "geometry": { "type": "Point", "coordinates": [ 105.8091325, 20.7699145 ] } },
{ "type": "Feature", "properties": { "accessibility_layer": "bus_stops", "element_type": "node", "osmid": "11166521240", "name": "Trước cổng xóm 7 thôn Phù Lưu Hạ", "name:vi": "", "official_name": "", "amenity": "", "highway": "bus_stop", "railway": "", "station": "", "public_transport": "platform", "bus": "yes", "operator": "", "network": "", "ref": "", "addr:street": "", "addr:district": "" }, "geometry": { "type": "Point", "coordinates": [ 105.7927697, 20.6539291 ] } },
{ "type": "Feature", "properties": { "accessibility_layer": "bus_stops", "element_type": "node", "osmid": "11539719381", "name": "Trường Trung học cơ sở Phương Tú", "name:vi": "", "official_name": "", "amenity": "", "highway": "bus_stop", "railway": "", "station": "", "public_transport": "platform", "bus": "yes", "operator": "", "network": "", "ref": "", "addr:street": "", "addr:district": "" }, "geometry": { "type": "Point", "coordinates": [ 105.7965212, 20.7281823 ] } },
{ "type": "Feature", "properties": { "accessibility_layer": "bus_stops", "element_type": "node", "osmid": "11539719372", "name": "Trường Trung học cơ sở Phương Tú", "name:vi": "", "official_name": "", "amenity": "", "highway": "bus_stop", "railway": "", "station": "", "public_transport": "platform", "bus": "yes", "operator": "", "network": "", "ref": "", "addr:street": "", "addr:district": "" }, "geometry": { "type": "Point", "coordinates": [ 105.796453, 20.7283114 ] } },
{ "type": "Feature", "properties": { "accessibility_layer": "bus_stops", "element_type": "node", "osmid": "11539719370", "name": "Trước cửa hàng rửa xe Tân Tiến 10m - Động Phí", "name:vi": "", "official_name": "", "amenity": "", "highway": "bus_stop", "railway": "", "station": "", "public_transport": "platform", "bus": "yes", "operator": "", "network": "", "ref": "", "addr:street": "", "addr:district": "" }, "geometry": { "type": "Point", "coordinates": [ 105.8035028, 20.7295755 ] } },
{ "type": "Feature", "properties": { "accessibility_layer": "bus_stops", "element_type": "node", "osmid": "9007641843", "name": "Xóm Bầu Bắc- Hướng về Yên Nghĩa", "name:vi": "", "official_name": "", "amenity": "", "highway": "bus_stop", "railway": "", "station": "", "public_transport": "platform", "bus": "yes", "operator": "", "network": "", "ref": "", "addr:street": "", "addr:district": "" }, "geometry": { "type": "Point", "coordinates": [ 105.7948493, 20.7776579 ] } },
{ "type": "Feature", "properties": { "accessibility_layer": "bus_stops", "element_type": "node", "osmid": "9007641842", "name": "Xóm Bầu Bắc - Hướng về Phú Túc", "name:vi": "", "official_name": "", "amenity": "", "highway": "bus_stop", "railway": "", "station": "", "public_transport": "platform", "bus": "yes", "operator": "", "network": "", "ref": "", "addr:street": "", "addr:district": "" }, "geometry": { "type": "Point", "coordinates": [ 105.7955025, 20.7776603 ] } },
{ "type": "Feature", "properties": { "accessibility_layer": "bus_stops", "element_type": "node", "osmid": "9007641854", "name": "Trước Nhà hàng ẩm thực sinh thái Đức Vương 100m", "name:vi": "", "official_name": "", "amenity": "", "highway": "bus_stop", "railway": "", "station": "", "public_transport": "platform", "bus": "yes", "operator": "", "network": "", "ref": "", "addr:street": "", "addr:district": "" }, "geometry": { "type": "Point", "coordinates": [ 105.7987328, 20.7784003 ] } },
{ "type": "Feature", "properties": { "accessibility_layer": "bus_stops", "element_type": "node", "osmid": "9007641853", "name": "Nhà hàng sinh thái Minh Vương", "name:vi": "", "official_name": "", "amenity": "", "highway": "bus_stop", "railway": "", "station": "", "public_transport": "platform", "bus": "yes", "operator": "", "network": "", "ref": "", "addr:street": "", "addr:district": "" }, "geometry": { "type": "Point", "coordinates": [ 105.7991986, 20.778701 ] } },
{ "type": "Feature", "properties": { "accessibility_layer": "bus_stops", "element_type": "node", "osmid": "11549840988", "name": "Trước cổng làng vân hóa An Khoái khoảng 50m", "name:vi": "", "official_name": "", "amenity": "", "highway": "bus_stop", "railway": "", "station": "", "public_transport": "platform", "bus": "yes", "operator": "", "network": "", "ref": "", "addr:street": "", "addr:district": "" }, "geometry": { "type": "Point", "coordinates": [ 105.7927319, 20.8181035 ] } },
{ "type": "Feature", "properties": { "accessibility_layer": "bus_stops", "element_type": "node", "osmid": "11549841025", "name": "Cổng làng văn hóa An Khoái", "name:vi": "", "official_name": "", "amenity": "", "highway": "bus_stop", "railway": "", "station": "", "public_transport": "platform", "bus": "yes", "operator": "", "network": "", "ref": "", "addr:street": "", "addr:district": "" }, "geometry": { "type": "Point", "coordinates": [ 105.7929896, 20.8182408 ] } },
{ "type": "Feature", "properties": { "accessibility_layer": "bus_stops", "element_type": "node", "osmid": "9007641862", "name": "Qua đối diện đường vào Chùa thôn Đường La 60m", "name:vi": "", "official_name": "", "amenity": "", "highway": "bus_stop", "railway": "", "station": "", "public_transport": "platform", "bus": "yes", "operator": "", "network": "", "ref": "", "addr:street": "", "addr:district": "" }, "geometry": { "type": "Point", "coordinates": [ 105.8079856, 20.7744128 ] } },
{ "type": "Feature", "properties": { "accessibility_layer": "bus_stops", "element_type": "node", "osmid": "9007641861", "name": "Trước đường vào Chùa thôn Đường La 40m", "name:vi": "", "official_name": "", "amenity": "", "highway": "bus_stop", "railway": "", "station": "", "public_transport": "platform", "bus": "yes", "operator": "", "network": "", "ref": "", "addr:street": "", "addr:district": "" }, "geometry": { "type": "Point", "coordinates": [ 105.80767, 20.7748384 ] } },
{ "type": "Feature", "properties": { "accessibility_layer": "bus_stops", "element_type": "node", "osmid": "9007641860", "name": "Đối diện CH xăng dầu Phú Ngọc", "name:vi": "", "official_name": "", "amenity": "", "highway": "bus_stop", "railway": "", "station": "", "public_transport": "platform", "bus": "yes", "operator": "", "network": "", "ref": "", "addr:street": "", "addr:district": "" }, "geometry": { "type": "Point", "coordinates": [ 105.8051832, 20.7794701 ] } },
{ "type": "Feature", "properties": { "accessibility_layer": "bus_stops", "element_type": "node", "osmid": "9007641855", "name": "CH xăng dầu Phú Ngọc", "name:vi": "", "official_name": "", "amenity": "", "highway": "bus_stop", "railway": "", "station": "", "public_transport": "platform", "bus": "yes", "operator": "", "network": "", "ref": "", "addr:street": "", "addr:district": "" }, "geometry": { "type": "Point", "coordinates": [ 105.8057065, 20.779487 ] } },
{ "type": "Feature", "properties": { "accessibility_layer": "bus_stops", "element_type": "node", "osmid": "9100359367", "name": "Gần ngã 3 Phú Túc đi TL 429 150m", "name:vi": "", "official_name": "", "amenity": "", "highway": "bus_stop", "railway": "", "station": "", "public_transport": "platform", "bus": "yes", "operator": "", "network": "", "ref": "", "addr:street": "", "addr:district": "" }, "geometry": { "type": "Point", "coordinates": [ 105.8071322, 20.7796741 ] } },
{ "type": "Feature", "properties": { "accessibility_layer": "bus_stops", "element_type": "node", "osmid": "9100359366", "name": "Qua ngã 3 TL 429 đi Phú Túc 200m", "name:vi": "", "official_name": "", "amenity": "", "highway": "bus_stop", "railway": "", "station": "", "public_transport": "platform", "bus": "yes", "operator": "", "network": "", "ref": "", "addr:street": "", "addr:district": "" }, "geometry": { "type": "Point", "coordinates": [ 105.8069353, 20.77976 ] } },
{ "type": "Feature", "properties": { "accessibility_layer": "bus_stops", "element_type": "node", "osmid": "9100359365", "name": "Đối diện mốc Km11+400 - TL 429", "name:vi": "", "official_name": "", "amenity": "", "highway": "bus_stop", "railway": "", "station": "", "public_transport": "platform", "bus": "yes", "operator": "", "network": "", "ref": "", "addr:street": "", "addr:district": "" }, "geometry": { "type": "Point", "coordinates": [ 105.8082043, 20.7820584 ] } },
{ "type": "Feature", "properties": { "accessibility_layer": "bus_stops", "element_type": "node", "osmid": "9100359364", "name": "Gần mốc Km11+400 - TL 429", "name:vi": "", "official_name": "", "amenity": "", "highway": "bus_stop", "railway": "", "station": "", "public_transport": "platform", "bus": "yes", "operator": "", "network": "", "ref": "", "addr:street": "", "addr:district": "" }, "geometry": { "type": "Point", "coordinates": [ 105.808532, 20.783145 ] } },
{ "type": "Feature", "properties": { "accessibility_layer": "bus_stops", "element_type": "node", "osmid": "11549840985", "name": "Đối diện UBND xã Tân Ước", "name:vi": "", "official_name": "", "amenity": "", "highway": "bus_stop", "railway": "", "station": "", "public_transport": "platform", "bus": "yes", "operator": "", "network": "", "ref": "", "addr:street": "", "addr:district": "" }, "geometry": { "type": "Point", "coordinates": [ 105.8069295, 20.8318397 ] } },
{ "type": "Feature", "properties": { "accessibility_layer": "bus_stops", "element_type": "node", "osmid": "11549841028", "name": "UBND xã Tân Ước", "name:vi": "", "official_name": "", "amenity": "", "highway": "bus_stop", "railway": "", "station": "", "public_transport": "platform", "bus": "yes", "operator": "", "network": "", "ref": "", "addr:street": "", "addr:district": "" }, "geometry": { "type": "Point", "coordinates": [ 105.8070275, 20.83193 ] } },
{ "type": "Feature", "properties": { "accessibility_layer": "bus_stops", "element_type": "node", "osmid": "11549841029", "name": "Ngã 3 đường vào xã Tân Ước khoảng 70m", "name:vi": "", "official_name": "", "amenity": "", "highway": "bus_stop", "railway": "", "station": "", "public_transport": "platform", "bus": "yes", "operator": "", "network": "", "ref": "", "addr:street": "", "addr:district": "" }, "geometry": { "type": "Point", "coordinates": [ 105.8082671, 20.8380259 ] } },
{ "type": "Feature", "properties": { "accessibility_layer": "bus_stops", "element_type": "node", "osmid": "11549840984", "name": "Qua ngã 3 đường vào xã Tân Ước khoảng 50m", "name:vi": "", "official_name": "", "amenity": "", "highway": "bus_stop", "railway": "", "station": "", "public_transport": "platform", "bus": "yes", "operator": "", "network": "", "ref": "", "addr:street": "", "addr:district": "" }, "geometry": { "type": "Point", "coordinates": [ 105.8082173, 20.8385555 ] } },
{ "type": "Feature", "properties": { "accessibility_layer": "bus_stops", "element_type": "node", "osmid": "11549841030", "name": "Trung tâm điện máy Điền Ngân", "name:vi": "", "official_name": "", "amenity": "", "highway": "bus_stop", "railway": "", "station": "", "public_transport": "platform", "bus": "yes", "operator": "", "network": "", "ref": "", "addr:street": "", "addr:district": "" }, "geometry": { "type": "Point", "coordinates": [ 105.8121564, 20.8503513 ] } },
{ "type": "Feature", "properties": { "accessibility_layer": "bus_stops", "element_type": "node", "osmid": "11549840983", "name": "Giếng cổ xóm 3 thôn Bạch Nao", "name:vi": "", "official_name": "", "amenity": "", "highway": "bus_stop", "railway": "", "station": "", "public_transport": "platform", "bus": "yes", "operator": "", "network": "", "ref": "", "addr:street": "", "addr:district": "" }, "geometry": { "type": "Point", "coordinates": [ 105.812291, 20.8506778 ] } },
{ "type": "Feature", "properties": { "accessibility_layer": "bus_stops", "element_type": "node", "osmid": "11549841031", "name": "Nhà văn hóa thôn Tam Đa", "name:vi": "", "official_name": "", "amenity": "", "highway": "bus_stop", "railway": "", "station": "", "public_transport": "platform", "bus": "yes", "operator": "", "network": "", "ref": "", "addr:street": "", "addr:district": "" }, "geometry": { "type": "Point", "coordinates": [ 105.8127156, 20.8554461 ] } },
{ "type": "Feature", "properties": { "accessibility_layer": "bus_stops", "element_type": "node", "osmid": "11549840982", "name": "Đối diện Nhà văn hóa thôn Tam Đa", "name:vi": "", "official_name": "", "amenity": "", "highway": "bus_stop", "railway": "", "station": "", "public_transport": "platform", "bus": "yes", "operator": "", "network": "", "ref": "", "addr:street": "", "addr:district": "" }, "geometry": { "type": "Point", "coordinates": [ 105.8126299, 20.8555982 ] } },
{ "type": "Feature", "properties": { "accessibility_layer": "bus_stops", "element_type": "node", "osmid": "11549840981", "name": "Qua đường đình, thôn Dụ Tiền khoảng 50m", "name:vi": "", "official_name": "", "amenity": "", "highway": "bus_stop", "railway": "", "station": "", "public_transport": "platform", "bus": "yes", "operator": "", "network": "", "ref": "", "addr:street": "", "addr:district": "" }, "geometry": { "type": "Point", "coordinates": [ 105.8126977, 20.8630738 ] } },
{ "type": "Feature", "properties": { "accessibility_layer": "bus_stops", "element_type": "node", "osmid": "11549841032", "name": "Đường đình, thôn Dụ Tiền khoảng 50m", "name:vi": "", "official_name": "", "amenity": "", "highway": "bus_stop", "railway": "", "station": "", "public_transport": "platform", "bus": "yes", "operator": "", "network": "", "ref": "", "addr:street": "", "addr:district": "" }, "geometry": { "type": "Point", "coordinates": [ 105.812619, 20.8648311 ] } },
{ "type": "Feature", "properties": { "accessibility_layer": "bus_stops", "element_type": "node", "osmid": "11537292364", "name": "Trường Mầm Non Thanh Thùy", "name:vi": "", "official_name": "", "amenity": "", "highway": "bus_stop", "railway": "", "station": "", "public_transport": "platform", "bus": "yes", "operator": "", "network": "", "ref": "", "addr:street": "", "addr:district": "" }, "geometry": { "type": "Point", "coordinates": [ 105.8107233, 20.8678756 ] } },
{ "type": "Feature", "properties": { "accessibility_layer": "bus_stops", "element_type": "node", "osmid": "11537292356", "name": "Đối diện trường mầm non xã Thanh Thùy", "name:vi": "", "official_name": "", "amenity": "", "highway": "bus_stop", "railway": "", "station": "", "public_transport": "platform", "bus": "yes", "operator": "", "network": "", "ref": "", "addr:street": "", "addr:district": "" }, "geometry": { "type": "Point", "coordinates": [ 105.8109563, 20.8680744 ] } },
{ "type": "Feature", "properties": { "accessibility_layer": "bus_stops", "element_type": "node", "osmid": "11549841026", "name": "Đường vào Chùa Tây Quế Sơn", "name:vi": "", "official_name": "", "amenity": "", "highway": "bus_stop", "railway": "", "station": "", "public_transport": "platform", "bus": "yes", "operator": "", "network": "", "ref": "", "addr:street": "", "addr:district": "" }, "geometry": { "type": "Point", "coordinates": [ 105.7961951, 20.8224042 ] } },
{ "type": "Feature", "properties": { "accessibility_layer": "bus_stops", "element_type": "node", "osmid": "11549840987", "name": "Trước đường vào Chùa Tây Quế Sơn khoảng 50m", "name:vi": "", "official_name": "", "amenity": "", "highway": "bus_stop", "railway": "", "station": "", "public_transport": "platform", "bus": "yes", "operator": "", "network": "", "ref": "", "addr:street": "", "addr:district": "" }, "geometry": { "type": "Point", "coordinates": [ 105.7964034, 20.8227694 ] } },
{ "type": "Feature", "properties": { "accessibility_layer": "bus_stops", "element_type": "node", "osmid": "11549841027", "name": "Qua cầu Tri Lễ khoảng 70m", "name:vi": "", "official_name": "", "amenity": "", "highway": "bus_stop", "railway": "", "station": "", "public_transport": "platform", "bus": "yes", "operator": "", "network": "", "ref": "", "addr:street": "", "addr:district": "" }, "geometry": { "type": "Point", "coordinates": [ 105.8018955, 20.8286231 ] } },
{ "type": "Feature", "properties": { "accessibility_layer": "bus_stops", "element_type": "node", "osmid": "11549840986", "name": "Trước Cầu Tri Lễ khoảng 50m", "name:vi": "", "official_name": "", "amenity": "", "highway": "bus_stop", "railway": "", "station": "", "public_transport": "platform", "bus": "yes", "operator": "", "network": "", "ref": "", "addr:street": "", "addr:district": "" }, "geometry": { "type": "Point", "coordinates": [ 105.8022067, 20.8289086 ] } },
{ "type": "Feature", "properties": { "accessibility_layer": "bus_stops", "element_type": "node", "osmid": "11537292362", "name": "Đường vào thôn Bùi Xá", "name:vi": "", "official_name": "", "amenity": "", "highway": "bus_stop", "railway": "", "station": "", "public_transport": "platform", "bus": "yes", "operator": "", "network": "", "ref": "", "addr:street": "", "addr:district": "" }, "geometry": { "type": "Point", "coordinates": [ 105.8019701, 20.8731984 ] } },
{ "type": "Feature", "properties": { "accessibility_layer": "bus_stops", "element_type": "node", "osmid": "11537292358", "name": "Đối diện đường vào thôn Bùi Xá", "name:vi": "", "official_name": "", "amenity": "", "highway": "bus_stop", "railway": "", "station": "", "public_transport": "platform", "bus": "yes", "operator": "", "network": "", "ref": "", "addr:street": "", "addr:district": "" }, "geometry": { "type": "Point", "coordinates": [ 105.8017751, 20.8734506 ] } },
{ "type": "Feature", "properties": { "accessibility_layer": "bus_stops", "element_type": "node", "osmid": "9019312625", "name": "Đối diện đường vào Trại tạm giam Thanh Xuân", "name:vi": "", "official_name": "", "amenity": "", "highway": "bus_stop", "railway": "", "station": "", "public_transport": "platform", "bus": "yes", "operator": "", "network": "", "ref": "", "addr:street": "", "addr:district": "" }, "geometry": { "type": "Point", "coordinates": [ 105.7941199, 20.8918238 ] } },
{ "type": "Feature", "properties": { "accessibility_layer": "bus_stops", "element_type": "node", "osmid": "9019312626", "name": "Gần đường vào Trại tạm giam Thanh Xuân", "name:vi": "", "official_name": "", "amenity": "", "highway": "bus_stop", "railway": "", "station": "", "public_transport": "platform", "bus": "yes", "operator": "", "network": "", "ref": "", "addr:street": "", "addr:district": "" }, "geometry": { "type": "Point", "coordinates": [ 105.7943975, 20.8920152 ] } },
{ "type": "Feature", "properties": { "accessibility_layer": "bus_stops", "element_type": "node", "osmid": "8943684263", "name": "Đối diện sân bóng Mậu Lương - Đường Lê Xuân Điệp", "name:vi": "", "official_name": "", "amenity": "", "highway": "bus_stop", "railway": "", "station": "", "public_transport": "platform", "bus": "yes", "operator": "", "network": "", "ref": "", "addr:street": "", "addr:district": "" }, "geometry": { "type": "Point", "coordinates": [ 105.7926941, 20.9556561 ] } },
{ "type": "Feature", "properties": { "accessibility_layer": "bus_stops", "element_type": "node", "osmid": "8943684264", "name": "Trung tâm thể thao Mậu Mương - Đường Lê Xuân Điệp", "name:vi": "", "official_name": "", "amenity": "", "highway": "bus_stop", "railway": "", "station": "", "public_transport": "platform", "bus": "yes", "operator": "", "network": "", "ref": "", "addr:street": "", "addr:district": "" }, "geometry": { "type": "Point", "coordinates": [ 105.7930284, 20.9562066 ] } },
{ "type": "Feature", "properties": { "accessibility_layer": "bus_stops", "element_type": "node", "osmid": "11537292357", "name": "UBND xã Thanh Thùy", "name:vi": "", "official_name": "", "amenity": "", "highway": "bus_stop", "railway": "", "station": "", "public_transport": "platform", "bus": "yes", "operator": "", "network": "", "ref": "", "addr:street": "", "addr:district": "" }, "geometry": { "type": "Point", "coordinates": [ 105.8056214, 20.8707936 ] } },
{ "type": "Feature", "properties": { "accessibility_layer": "bus_stops", "element_type": "node", "osmid": "11537292363", "name": "Đối diện Trung học cơ sở Thanh Thùy", "name:vi": "", "official_name": "", "amenity": "", "highway": "bus_stop", "railway": "", "station": "", "public_transport": "platform", "bus": "yes", "operator": "", "network": "", "ref": "", "addr:street": "", "addr:district": "" }, "geometry": { "type": "Point", "coordinates": [ 105.8053047, 20.871001 ] } },
{ "type": "Feature", "properties": { "accessibility_layer": "bus_stops", "element_type": "node", "osmid": "8897455252", "name": "Qua Cầu Tó 150m", "name:vi": "", "official_name": "", "amenity": "", "highway": "bus_stop", "railway": "", "station": "", "public_transport": "platform", "bus": "yes", "operator": "", "network": "", "ref": "", "addr:street": "", "addr:district": "" }, "geometry": { "type": "Point", "coordinates": [ 105.8121131, 20.9547716 ] } },
{ "type": "Feature", "properties": { "accessibility_layer": "bus_stops", "element_type": "node", "osmid": "8897455261", "name": "Trường CĐ Kỹ Thuật Công Nghiệp HN", "name:vi": "", "official_name": "", "amenity": "", "highway": "bus_stop", "railway": "", "station": "", "public_transport": "platform", "bus": "yes", "operator": "", "network": "", "ref": "", "addr:street": "", "addr:district": "" }, "geometry": { "type": "Point", "coordinates": [ 105.8115436, 20.9552754 ] } },
{ "type": "Feature", "properties": { "accessibility_layer": "bus_stops", "element_type": "node", "osmid": "8846358788", "name": "30 Cầu Bươu", "name:vi": "", "official_name": "", "amenity": "", "highway": "bus_stop", "railway": "", "station": "", "public_transport": "platform", "bus": "yes", "operator": "", "network": "", "ref": "", "addr:street": "", "addr:district": "" }, "geometry": { "type": "Point", "coordinates": [ 105.8078695, 20.9572258 ] } },
{ "type": "Feature", "properties": { "accessibility_layer": "bus_stops", "element_type": "node", "osmid": "8846358756", "name": "CT8B chung cư Đại Thanh", "name:vi": "", "official_name": "", "amenity": "", "highway": "bus_stop", "railway": "", "station": "", "public_transport": "platform", "bus": "yes", "operator": "", "network": "", "ref": "", "addr:street": "", "addr:district": "" }, "geometry": { "type": "Point", "coordinates": [ 105.8071971, 20.957317 ] } },
{ "type": "Feature", "properties": { "accessibility_layer": "bus_stops", "element_type": "node", "osmid": "8846358757", "name": "Đối diện Trung tâm XNK Xây dựng Vimeco", "name:vi": "", "official_name": "", "amenity": "", "highway": "bus_stop", "railway": "", "station": "", "public_transport": "platform", "bus": "yes", "operator": "", "network": "", "ref": "", "addr:street": "", "addr:district": "" }, "geometry": { "type": "Point", "coordinates": [ 105.8115729, 20.9593784 ] } },
{ "type": "Feature", "properties": { "accessibility_layer": "bus_stops", "element_type": "node", "osmid": "8846358787", "name": "Trung tâm XNK Xây dựng Vimeco", "name:vi": "", "official_name": "", "amenity": "", "highway": "bus_stop", "railway": "", "station": "", "public_transport": "platform", "bus": "yes", "operator": "", "network": "", "ref": "", "addr:street": "", "addr:district": "" }, "geometry": { "type": "Point", "coordinates": [ 105.8120698, 20.9599191 ] } },
{ "type": "Feature", "properties": { "accessibility_layer": "bus_stops", "element_type": "node", "osmid": "13697655697", "name": "81 Thanh Liệt", "name:vi": "", "official_name": "", "amenity": "", "highway": "bus_stop", "railway": "", "station": "", "public_transport": "platform", "bus": "yes", "operator": "", "network": "", "ref": "", "addr:street": "", "addr:district": "" }, "geometry": { "type": "Point", "coordinates": [ 105.8118272, 20.9619371 ] } },
{ "type": "Feature", "properties": { "accessibility_layer": "bus_stops", "element_type": "node", "osmid": "13697659004", "name": "Đối diện 81 Thanh Liệt", "name:vi": "", "official_name": "", "amenity": "", "highway": "bus_stop", "railway": "", "station": "", "public_transport": "platform", "bus": "yes", "operator": "", "network": "", "ref": "", "addr:street": "", "addr:district": "" }, "geometry": { "type": "Point", "coordinates": [ 105.8117538, 20.962061 ] } },
{ "type": "Feature", "properties": { "accessibility_layer": "bus_stops", "element_type": "node", "osmid": "9019290567", "name": "Gần cổng khu nhà ở Hưng Thịnh", "name:vi": "", "official_name": "", "amenity": "", "highway": "bus_stop", "railway": "", "station": "", "public_transport": "platform", "bus": "yes", "operator": "", "network": "", "ref": "", "addr:street": "", "addr:district": "" }, "geometry": { "type": "Point", "coordinates": [ 105.7864267, 20.9492326 ] } },
{ "type": "Feature", "properties": { "accessibility_layer": "bus_stops", "element_type": "node", "osmid": "8943684266", "name": "Ban chỉ huy quân sự quận Hà Đông - Doanh trại QĐND - Đường Lê Xuân Điệp", "name:vi": "", "official_name": "", "amenity": "", "highway": "bus_stop", "railway": "", "station": "", "public_transport": "platform", "bus": "yes", "operator": "", "network": "", "ref": "", "addr:street": "", "addr:district": "" }, "geometry": { "type": "Point", "coordinates": [ 105.7912803, 20.9505481 ] } },
{ "type": "Feature", "properties": { "accessibility_layer": "bus_stops", "element_type": "node", "osmid": "8943684265", "name": "Đối diện khu chung cư và nhà ở quân đội - Bộ Quốc Phòng - Đường Lê Xuân Điệp", "name:vi": "", "official_name": "", "amenity": "", "highway": "bus_stop", "railway": "", "station": "", "public_transport": "platform", "bus": "yes", "operator": "", "network": "", "ref": "", "addr:street": "", "addr:district": "" }, "geometry": { "type": "Point", "coordinates": [ 105.7912649, 20.9510546 ] } },
{ "type": "Feature", "properties": { "accessibility_layer": "bus_stops", "element_type": "node", "osmid": "9019290566", "name": "Trước ngã tư Mậu Lương - Phúc La 50m", "name:vi": "", "official_name": "", "amenity": "", "highway": "bus_stop", "railway": "", "station": "", "public_transport": "platform", "bus": "yes", "operator": "", "network": "", "ref": "", "addr:street": "", "addr:district": "" }, "geometry": { "type": "Point", "coordinates": [ 105.7893521, 20.9572193 ] } },
{ "type": "Feature", "properties": { "accessibility_layer": "bus_stops", "element_type": "node", "osmid": "9019290564", "name": "Sau ngã tư Mậu Lương - Phúc La 50m", "name:vi": "", "official_name": "", "amenity": "", "highway": "bus_stop", "railway": "", "station": "", "public_transport": "platform", "bus": "yes", "operator": "", "network": "", "ref": "", "addr:street": "", "addr:district": "" }, "geometry": { "type": "Point", "coordinates": [ 105.7890418, 20.9572838 ] } },
{ "type": "Feature", "properties": { "accessibility_layer": "bus_stops", "element_type": "node", "osmid": "8943684261", "name": "Đối diện 17 Tổ 10 Kiến Hưng - Phố Mậu Lương", "name:vi": "", "official_name": "", "amenity": "", "highway": "bus_stop", "railway": "", "station": "", "public_transport": "platform", "bus": "yes", "operator": "", "network": "", "ref": "", "addr:street": "", "addr:district": "" }, "geometry": { "type": "Point", "coordinates": [ 105.7906693, 20.9574928 ] } },
{ "type": "Feature", "properties": { "accessibility_layer": "bus_stops", "element_type": "node", "osmid": "8943684262", "name": "Miếu làng Mậu Lương - Phố Mậu Lương", "name:vi": "", "official_name": "", "amenity": "", "highway": "bus_stop", "railway": "", "station": "", "public_transport": "platform", "bus": "yes", "operator": "", "network": "", "ref": "", "addr:street": "", "addr:district": "" }, "geometry": { "type": "Point", "coordinates": [ 105.7904481, 20.9578726 ] } },
{ "type": "Feature", "properties": { "accessibility_layer": "bus_stops", "element_type": "node", "osmid": "8943744764", "name": "Trường Trung học cơ sở Kiến Hưng - Đa Sỹ", "name:vi": "", "official_name": "", "amenity": "", "highway": "bus_stop", "railway": "", "station": "", "public_transport": "platform", "bus": "yes", "operator": "", "network": "", "ref": "", "addr:street": "", "addr:district": "" }, "geometry": { "type": "Point", "coordinates": [ 105.7891242, 20.9588596 ] } },
{ "type": "Feature", "properties": { "accessibility_layer": "bus_stops", "element_type": "node", "osmid": "8943744765", "name": "Trường Tiểu học Kiến Hưng - Đa Sỹ", "name:vi": "", "official_name": "", "amenity": "", "highway": "bus_stop", "railway": "", "station": "", "public_transport": "platform", "bus": "yes", "operator": "", "network": "", "ref": "", "addr:street": "", "addr:district": "" }, "geometry": { "type": "Point", "coordinates": [ 105.7889234, 20.9592034 ] } },
{ "type": "Feature", "properties": { "accessibility_layer": "bus_stops", "element_type": "node", "osmid": "8943684259", "name": "Tường rào khách sạn Mường Thanh - KĐT Xa La - Đường Phúc La", "name:vi": "", "official_name": "", "amenity": "", "highway": "bus_stop", "railway": "", "station": "", "public_transport": "platform", "bus": "yes", "operator": "", "network": "", "ref": "", "addr:street": "", "addr:district": "" }, "geometry": { "type": "Point", "coordinates": [ 105.7922887, 20.9605836 ] } },
{ "type": "Feature", "properties": { "accessibility_layer": "bus_stops", "element_type": "node", "osmid": "8846358789", "name": "12 Cầu Bươu", "name:vi": "", "official_name": "", "amenity": "", "highway": "bus_stop", "railway": "", "station": "", "public_transport": "platform", "bus": "yes", "operator": "", "network": "", "ref": "", "addr:street": "", "addr:district": "" }, "geometry": { "type": "Point", "coordinates": [ 105.8038293, 20.9593502 ] } },
{ "type": "Feature", "properties": { "accessibility_layer": "bus_stops", "element_type": "node", "osmid": "8846358755", "name": "Công ty XNK Lâm nông sản số 1 Sài Gòn", "name:vi": "", "official_name": "", "amenity": "", "highway": "bus_stop", "railway": "", "station": "", "public_transport": "platform", "bus": "yes", "operator": "", "network": "", "ref": "", "addr:street": "", "addr:district": "" }, "geometry": { "type": "Point", "coordinates": [ 105.8032134, 20.959481 ] } },
{ "type": "Feature", "properties": { "accessibility_layer": "bus_stops", "element_type": "node", "osmid": "8943684260", "name": "Đối diện Nhà CT4B Khu đô thị Xa La - Phúc La", "name:vi": "", "official_name": "", "amenity": "", "highway": "bus_stop", "railway": "", "station": "", "public_transport": "platform", "bus": "yes", "operator": "", "network": "", "ref": "", "addr:street": "", "addr:district": "" }, "geometry": { "type": "Point", "coordinates": [ 105.7935194, 20.9612475 ] } },
{ "type": "Feature", "properties": { "accessibility_layer": "bus_stops", "element_type": "node", "osmid": "8846358754", "name": "Gần đường vào Trại tạm giam", "name:vi": "", "official_name": "", "amenity": "", "highway": "bus_stop", "railway": "", "station": "", "public_transport": "platform", "bus": "yes", "operator": "", "network": "", "ref": "", "addr:street": "", "addr:district": "" }, "geometry": { "type": "Point", "coordinates": [ 105.7991925, 20.9616449 ] } },
{ "type": "Feature", "properties": { "accessibility_layer": "bus_stops", "element_type": "node", "osmid": "8846358790", "name": "Bệnh viện K - Cơ sở Tân Triều", "name:vi": "", "official_name": "", "amenity": "", "highway": "bus_stop", "railway": "", "station": "", "public_transport": "platform", "bus": "yes", "operator": "", "network": "", "ref": "", "addr:street": "", "addr:district": "" }, "geometry": { "type": "Point", "coordinates": [ 105.7989745, 20.9619706 ] } },
{ "type": "Feature", "properties": { "accessibility_layer": "bus_stops", "element_type": "node", "osmid": "8943684258", "name": "Nhà CT2B - Khu đô thị Xa La", "name:vi": "", "official_name": "", "amenity": "", "highway": "bus_stop", "railway": "", "station": "", "public_transport": "platform", "bus": "yes", "operator": "", "network": "", "ref": "", "addr:street": "", "addr:district": "" }, "geometry": { "type": "Point", "coordinates": [ 105.7947846, 20.9622896 ] } },
{ "type": "Feature", "properties": { "accessibility_layer": "bus_stops", "element_type": "node", "osmid": "8943684257", "name": "Đối diện Nhà CT2A Khu đô thị Xa La - Đường Phúc La", "name:vi": "", "official_name": "", "amenity": "", "highway": "bus_stop", "railway": "", "station": "", "public_transport": "platform", "bus": "yes", "operator": "", "network": "", "ref": "", "addr:street": "", "addr:district": "" }, "geometry": { "type": "Point", "coordinates": [ 105.7945202, 20.9623912 ] } },
{ "type": "Feature", "properties": { "accessibility_layer": "bus_stops", "element_type": "node", "osmid": "8846358753", "name": "Cổng thôn Yên Xá - 89 Cầu Bươu", "name:vi": "", "official_name": "", "amenity": "", "highway": "bus_stop", "railway": "", "station": "", "public_transport": "platform", "bus": "yes", "operator": "", "network": "105-Đô Nghĩa- Cầu Giấy", "ref": "", "addr:street": "", "addr:district": "" }, "geometry": { "type": "Point", "coordinates": [ 105.7940097, 20.9644947 ] } },
{ "type": "Feature", "properties": { "accessibility_layer": "bus_stops", "element_type": "node", "osmid": "11524039228", "name": "Cách cổng sau viện K 50m", "name:vi": "", "official_name": "", "amenity": "", "highway": "bus_stop", "railway": "", "station": "", "public_transport": "platform", "bus": "yes", "operator": "", "network": "", "ref": "", "addr:street": "", "addr:district": "" }, "geometry": { "type": "Point", "coordinates": [ 105.7985447, 20.9645942 ] } },
{ "type": "Feature", "properties": { "accessibility_layer": "bus_stops", "element_type": "node", "osmid": "8846358791", "name": "Đối diện Tòa nhà CT2 Chung cư viện bỏng, gần ngã ba Yên Xá - Phùng Hưng (Hà Đông)", "name:vi": "", "official_name": "", "amenity": "", "highway": "bus_stop", "railway": "", "station": "", "public_transport": "platform", "bus": "yes", "operator": "", "network": "", "ref": "", "addr:street": "", "addr:district": "" }, "geometry": { "type": "Point", "coordinates": [ 105.7939392, 20.9647214 ] } },
{ "type": "Feature", "properties": { "accessibility_layer": "bus_stops", "element_type": "node", "osmid": "11524039227", "name": "Đối diện cổng viện K", "name:vi": "", "official_name": "", "amenity": "", "highway": "bus_stop", "railway": "", "station": "", "public_transport": "platform", "bus": "yes", "operator": "", "network": "", "ref": "", "addr:street": "", "addr:district": "" }, "geometry": { "type": "Point", "coordinates": [ 105.7990649, 20.9654074 ] } },
{ "type": "Feature", "properties": { "accessibility_layer": "bus_stops", "element_type": "node", "osmid": "13697659001", "name": "Yên Xá", "name:vi": "", "official_name": "", "amenity": "", "highway": "bus_stop", "railway": "", "station": "", "public_transport": "platform", "bus": "yes", "operator": "", "network": "", "ref": "", "addr:street": "", "addr:district": "" }, "geometry": { "type": "Point", "coordinates": [ 105.7981964, 20.9695325 ] } },
{ "type": "Feature", "properties": { "accessibility_layer": "bus_stops", "element_type": "node", "osmid": "8939177164", "name": "Ga Phùng Khoang - 81 Trần Phú", "name:vi": "", "official_name": "", "amenity": "", "highway": "bus_stop", "railway": "", "station": "", "public_transport": "platform", "bus": "yes", "operator": "", "network": "", "ref": "", "addr:street": "", "addr:district": "" }, "geometry": { "type": "Point", "coordinates": [ 105.7929032, 20.9839593 ] } },
{ "type": "Feature", "properties": { "accessibility_layer": "bus_stops", "element_type": "node", "osmid": "8770675677", "name": "Công ty CP Công trình GT 873 - Nguyễn Trãi", "name:vi": "", "official_name": "", "amenity": "", "highway": "bus_stop", "railway": "", "station": "", "public_transport": "platform", "bus": "yes", "operator": "", "network": "", "ref": "", "addr:street": "", "addr:district": "" }, "geometry": { "type": "Point", "coordinates": [ 105.794904, 20.9858628 ] } },
{ "type": "Feature", "properties": { "accessibility_layer": "bus_stops", "element_type": "node", "osmid": "8770739156", "name": "517 Nguyễn Trãi - Đối diện Đại học Hà Nội", "name:vi": "", "official_name": "", "amenity": "", "highway": "bus_stop", "railway": "", "station": "", "public_transport": "platform", "bus": "yes", "operator": "", "network": "", "ref": "", "addr:street": "", "addr:district": "" }, "geometry": { "type": "Point", "coordinates": [ 105.7960698, 20.9862326 ] } },
{ "type": "Feature", "properties": { "accessibility_layer": "bus_stops", "element_type": "node", "osmid": "11549233088", "name": "Hồng Dương (Thanh Oai) - Tuyến 123", "name:vi": "", "official_name": "", "amenity": "", "highway": "bus_stop", "railway": "", "station": "", "public_transport": "platform", "bus": "yes", "operator": "", "network": "", "ref": "", "addr:street": "", "addr:district": "" }, "geometry": { "type": "Point", "coordinates": [ 105.7813776, 20.7946243 ] } },
{ "type": "Feature", "properties": { "accessibility_layer": "bus_stops", "element_type": "node", "osmid": "9006046623", "name": "Làng Tảo Dương", "name:vi": "", "official_name": "", "amenity": "", "highway": "bus_stop", "railway": "", "station": "", "public_transport": "platform", "bus": "yes", "operator": "", "network": "", "ref": "", "addr:street": "", "addr:district": "" }, "geometry": { "type": "Point", "coordinates": [ 105.7793315, 20.7952787 ] } },
{ "type": "Feature", "properties": { "accessibility_layer": "bus_stops", "element_type": "node", "osmid": "9006046625", "name": "Đối diện cổng làng Ngọc Đình", "name:vi": "", "official_name": "", "amenity": "", "highway": "bus_stop", "railway": "", "station": "", "public_transport": "platform", "bus": "yes", "operator": "", "network": "", "ref": "", "addr:street": "", "addr:district": "" }, "geometry": { "type": "Point", "coordinates": [ 105.778222, 20.7997712 ] } },
{ "type": "Feature", "properties": { "accessibility_layer": "bus_stops", "element_type": "node", "osmid": "9006046624", "name": "Làng Ngọc Đình", "name:vi": "", "official_name": "", "amenity": "", "highway": "bus_stop", "railway": "", "station": "", "public_transport": "platform", "bus": "yes", "operator": "", "network": "", "ref": "", "addr:street": "", "addr:district": "" }, "geometry": { "type": "Point", "coordinates": [ 105.7782671, 20.8003971 ] } },
{ "type": "Feature", "properties": { "accessibility_layer": "bus_stops", "element_type": "node", "osmid": "9006046627", "name": "Qua đối diện định làng Canh Hoạch", "name:vi": "", "official_name": "", "amenity": "", "highway": "bus_stop", "railway": "", "station": "", "public_transport": "platform", "bus": "yes", "operator": "", "network": "", "ref": "", "addr:street": "", "addr:district": "" }, "geometry": { "type": "Point", "coordinates": [ 105.7763817, 20.8078626 ] } },
{ "type": "Feature", "properties": { "accessibility_layer": "bus_stops", "element_type": "node", "osmid": "9006046626", "name": "Đình làng Canh Hoạch", "name:vi": "", "official_name": "", "amenity": "", "highway": "bus_stop", "railway": "", "station": "", "public_transport": "platform", "bus": "yes", "operator": "", "network": "", "ref": "", "addr:street": "", "addr:district": "" }, "geometry": { "type": "Point", "coordinates": [ 105.7763196, 20.8091282 ] } },
{ "type": "Feature", "properties": { "accessibility_layer": "bus_stops", "element_type": "node", "osmid": "11549840991", "name": "UBND xã Dân Hòa", "name:vi": "", "official_name": "", "amenity": "", "highway": "bus_stop", "railway": "", "station": "", "public_transport": "platform", "bus": "yes", "operator": "", "network": "", "ref": "", "addr:street": "", "addr:district": "" }, "geometry": { "type": "Point", "coordinates": [ 105.7773983, 20.8127872 ] } },
{ "type": "Feature", "properties": { "accessibility_layer": "bus_stops", "element_type": "node", "osmid": "11549841023", "name": "Đối diện UBND xã Dân Hòa", "name:vi": "", "official_name": "", "amenity": "", "highway": "bus_stop", "railway": "", "station": "", "public_transport": "platform", "bus": "yes", "operator": "", "network": "", "ref": "", "addr:street": "", "addr:district": "" }, "geometry": { "type": "Point", "coordinates": [ 105.7799196, 20.8131496 ] } },
{ "type": "Feature", "properties": { "accessibility_layer": "bus_stops", "element_type": "node", "osmid": "9007641830", "name": "Đối diện cây xăng Phố Vác", "name:vi": "", "official_name": "", "amenity": "", "highway": "bus_stop", "railway": "", "station": "", "public_transport": "platform", "bus": "yes", "operator": "", "network": "", "ref": "", "addr:street": "", "addr:district": "" }, "geometry": { "type": "Point", "coordinates": [ 105.7755393, 20.814103 ] } },
{ "type": "Feature", "properties": { "accessibility_layer": "bus_stops", "element_type": "node", "osmid": "9007641831", "name": "Bưu điện huyện Thanh Oai", "name:vi": "", "official_name": "", "amenity": "", "highway": "bus_stop", "railway": "", "station": "", "public_transport": "platform", "bus": "yes", "operator": "", "network": "", "ref": "", "addr:street": "", "addr:district": "" }, "geometry": { "type": "Point", "coordinates": [ 105.7756865, 20.8142647 ] } },
{ "type": "Feature", "properties": { "accessibility_layer": "bus_stops", "element_type": "node", "osmid": "9006046629", "name": "27 Phố Vác", "name:vi": "", "official_name": "", "amenity": "", "highway": "bus_stop", "railway": "", "station": "", "public_transport": "platform", "bus": "yes", "operator": "", "network": "", "ref": "", "addr:street": "", "addr:district": "" }, "geometry": { "type": "Point", "coordinates": [ 105.7739446, 20.812015 ] } },
{ "type": "Feature", "properties": { "accessibility_layer": "bus_stops", "element_type": "node", "osmid": "9006046628", "name": "Đối diện 35 phố Vác", "name:vi": "", "official_name": "", "amenity": "", "highway": "bus_stop", "railway": "", "station": "", "public_transport": "platform", "bus": "yes", "operator": "", "network": "", "ref": "", "addr:street": "", "addr:district": "" }, "geometry": { "type": "Point", "coordinates": [ 105.7745427, 20.8122167 ] } },
{ "type": "Feature", "properties": { "accessibility_layer": "bus_stops", "element_type": "node", "osmid": "9007641828", "name": "Đối diện cổng làng Vũ Lăng", "name:vi": "", "official_name": "", "amenity": "", "highway": "bus_stop", "railway": "", "station": "", "public_transport": "platform", "bus": "yes", "operator": "", "network": "", "ref": "", "addr:street": "", "addr:district": "" }, "geometry": { "type": "Point", "coordinates": [ 105.7740273, 20.8186702 ] } },
{ "type": "Feature", "properties": { "accessibility_layer": "bus_stops", "element_type": "node", "osmid": "9007641829", "name": "Cổng làng Vũ Lăng", "name:vi": "", "official_name": "", "amenity": "", "highway": "bus_stop", "railway": "", "station": "", "public_transport": "platform", "bus": "yes", "operator": "", "network": "", "ref": "", "addr:street": "", "addr:district": "" }, "geometry": { "type": "Point", "coordinates": [ 105.7739552, 20.8193213 ] } },
{ "type": "Feature", "properties": { "accessibility_layer": "bus_stops", "element_type": "node", "osmid": "9007641827", "name": "Gần cửa hàng xăng dầu Phương Trung", "name:vi": "", "official_name": "", "amenity": "", "highway": "bus_stop", "railway": "", "station": "", "public_transport": "platform", "bus": "yes", "operator": "", "network": "", "ref": "", "addr:street": "", "addr:district": "" }, "geometry": { "type": "Point", "coordinates": [ 105.7726822, 20.8277999 ] } },
{ "type": "Feature", "properties": { "accessibility_layer": "bus_stops", "element_type": "node", "osmid": "9007641826", "name": "Trung tâm Giáo dục thường xuyên Thanh Oai", "name:vi": "", "official_name": "", "amenity": "", "highway": "bus_stop", "railway": "", "station": "", "public_transport": "platform", "bus": "yes", "operator": "", "network": "", "ref": "", "addr:street": "", "addr:district": "" }, "geometry": { "type": "Point", "coordinates": [ 105.7723757, 20.8290025 ] } },